"contributing_factor_vehicle_1","date","number_of_cyclist_injured","number_of_cyclist_killed","number_of_motorist_injured","number_of_motorist_killed","number_of_pedestrians_injured","number_of_pedestrians_killed","number_of_persons_injured","number_of_persons_killed","off_street_name","on_street_name","time","unique_key","vehicle_type_code1","borough","latitude","location.type","longitude","zip_code","contributing_factor_vehicle_2","vehicle_type_code2","contributing_factor_vehicle_3","vehicle_type_code_3","contributing_factor_vehicle_4","contributing_factor_vehicle_5","vehicle_type_code_4","vehicle_type_code_5","cross_street_name"
"Unspecified",2012-10-21,"0","0","0","0","0","1","0","1","VERMONT STREET","HIGHLAND BOULEVARD","13:15","164751","UNKNOWN",NA,NA,NA,NA,NA,NA,NA,NA,NA,NA,NA,NA,NA,NA
"Unspecified",2012-10-20,"0","0","0","0","0","1","0","1","BOOTH MEMORIAL AVENUE","164 STREET","6:00","247308","PASSENGER VEHICLE","QUEENS","40.7421627","Point","-73.8044317","11365",NA,NA,NA,NA,NA,NA,NA,NA,NA
"Alcohol Involvement",2012-10-20,"0","0","0","1","0","0","0","1","BEACH 84 STREET","ROCKAWAY FREEWAY","6:08","201221","SPORT UTILITY / STATION WAGON",NA,NA,NA,NA,NA,NA,NA,NA,NA,NA,NA,NA,NA,NA
"Traffic Control Disregarded",2012-10-19,"0","0","1","1","0","0","1","1","48 STREET","LAUREL HILL BOULEVARD","17:40","239867","PASSENGER VEHICLE",NA,NA,NA,NA,NA,"Traffic Control Disregarded","PASSENGER VEHICLE",NA,NA,NA,NA,NA,NA,NA
"Driver Inattention/Distraction",2012-10-19,"0","0","0","1","0","0","0","1","BLOOMFIELD AVENUE","GULF AVENUE","6:16","294758","SPORT UTILITY / STATION WAGON","STATEN ISLAND","40.6124545","Point","-74.1809831","10314","Driver Inattention/Distraction","VAN","Unspecified","SPORT UTILITY / STATION WAGON",NA,NA,NA,NA,NA
"Unspecified",2012-10-16,"0","0","1","1","0","0","1","1",NA,NA,"22:21","2988127","LARGE COM VEH(6 OR MORE TIRES)",NA,NA,NA,NA,NA,"Unspecified","LARGE COM VEH(6 OR MORE TIRES)",NA,NA,NA,NA,NA,NA,NA
"Driver Inattention/Distraction",2012-10-15,"0","0","0","0","0","1","0","1","43 AVENUE","91 PLACE","17:45","255740","SPORT UTILITY / STATION WAGON","QUEENS","40.7433116","Point","-73.8745041","11373",NA,NA,NA,NA,NA,NA,NA,NA,NA
"Unspecified",2012-10-15,"0","0","0","0","0","1","0","1","ARNOW AVENUE","BOSTON ROAD","7:01","103442","PASSENGER VEHICLE","BRONX","40.867743","Point","-73.8595467","10469",NA,NA,NA,NA,NA,NA,NA,NA,NA
"Unspecified",2012-10-13,"0","0","0","0","0","1","0","1","MERRICK BOULEVARD","HILLSIDE AVENUE","19:02","209415","BUS","QUEENS","40.7095327","Point","-73.7963937","11432",NA,NA,NA,NA,NA,NA,NA,NA,NA
"Failure to Yield Right-of-Way",2012-10-09,"0","0","1","1","0","0","1","1","MANHATTAN AVENUE","WEST 110 STREET","20:29","62376","PASSENGER VEHICLE","MANHATTAN","40.8011551","Point","-73.9596475","10026","Unspecified","MOTORCYCLE",NA,NA,NA,NA,NA,NA,NA
"Unspecified",2012-10-03,"0","0","0","0","0","1","0","1","LIVERMORE AVENUE","FOREST AVENUE","11:53","285666","PASSENGER VEHICLE","STATEN ISLAND","40.6242711","Point","-74.137232","10302",NA,NA,NA,NA,NA,NA,NA,NA,NA
"Unspecified",2012-09-30,"0","0","0","0","0","1","0","1","AVENUE OF AMERICAS","WEST 47 STREET","3:39","38725","LARGE COM VEH(6 OR MORE TIRES)","MANHATTAN","40.7580218","Point","-73.9817932","10036",NA,NA,NA,NA,NA,NA,NA,NA,NA
"Unspecified",2012-09-29,"0","0","0","1","0","0","0","1","VARICK AVENUE","JOHNSON AVENUE","3:12","194413","PASSENGER VEHICLE","BROOKLYN","40.7085426","Point","-73.9274072","11237",NA,NA,NA,NA,NA,NA,NA,NA,NA
"Failure to Yield Right-of-Way",2012-09-28,"0","0","0","0","0","1","0","1","BROADWAY","WEST 114 STREET","23:54","62352","PASSENGER VEHICLE","MANHATTAN","40.8067067","Point","-73.9648494","10025",NA,NA,NA,NA,NA,NA,NA,NA,NA
"Driver Inexperience",2012-09-27,"0","0","1","1","0","0","1","1",NA,NA,"5:54","2912429","SPORT UTILITY / STATION WAGON",NA,"40.8695913","Point","-73.8203916",NA,"Unspecified","PASSENGER VEHICLE",NA,NA,NA,NA,NA,NA,NA
"Driver Inattention/Distraction",2012-09-25,"0","1","0","0","0","0","0","1","HOOVER AVENUE","QUEENS BOULEVARD","6:03","204385","UNKNOWN","QUEENS","40.7120013","Point","-73.8254559","11415","Unspecified","BICYCLE",NA,NA,NA,NA,NA,NA,NA
"Unspecified",2012-09-24,"0","0","1","0","0","1","1","1","149 AVENUE","CROSSBAY BOULEVARD","20:53","228624","PASSENGER VEHICLE",NA,NA,NA,NA,NA,NA,NA,NA,NA,NA,NA,NA,NA,NA
"Physical Disability",2012-09-22,"0","0","1","0","1","1","2","1","EAST 59 STREET","PARK AVENUE","22:31","45850","PASSENGER VEHICLE","MANHATTAN","40.7629131","Point","-73.9697999","10022","Unspecified","SPORT UTILITY / STATION WAGON",NA,NA,NA,NA,NA,NA,NA
"Driver Inattention/Distraction",2012-09-20,"0","0","0","1","0","0","0","1","EAST 138 STREET","WILLIS AVENUE","0:19","73074","PASSENGER VEHICLE","BRONX","40.8091071","Point","-73.9228869","10454","Unspecified","MOTORCYCLE",NA,NA,NA,NA,NA,NA,NA
"Driver Inattention/Distraction",2012-09-20,"0","0","0","0","0","1","0","1","BROADWAY","WEST 58 STREET","14:05","38596","LARGE COM VEH(6 OR MORE TIRES)","MANHATTAN","40.7671096","Point","-73.9817185","10019",NA,NA,NA,NA,NA,NA,NA,NA,NA
"Unspecified",2012-09-18,"0","0","0","0","0","1","0","1","ALABAMA AVENUE","EAST NEW YORK AVENUE","6:40","164369","PASSENGER VEHICLE","BROOKLYN","40.6768941","Point","-73.9000457","11207",NA,NA,NA,NA,NA,NA,NA,NA,NA
"Driver Inattention/Distraction",2012-09-17,"0","0","0","0","0","1","0","1","EAST 69 STREET","1 AVENUE","12:59","45770","TAXI","MANHATTAN","40.765868","Point","-73.9574126","10021",NA,NA,NA,NA,NA,NA,NA,NA,NA
"Passenger Distraction",2013-12-22,"0","0","0","0","0","1","0","1",NA,NA,"1:54","2897716","SPORT UTILITY / STATION WAGON",NA,NA,NA,NA,NA,NA,NA,NA,NA,NA,NA,NA,NA,NA
"Turning Improperly",2012-09-15,"0","0","0","1","0","0","0","1","LENOX AVENUE","WEST 125 STREET","13:38","63762","MOTORCYCLE","MANHATTAN","40.8077723","Point","-73.9454833","10027","Driver Inexperience","TAXI","Unspecified","BUS",NA,NA,NA,NA,NA
"Backing Unsafely",2012-09-15,"0","0","1","0","1","1","2","1","JULIANA PLACE","CLYMER STREET","21:50","194327","SPORT UTILITY / STATION WAGON","BROOKLYN","40.7056343","Point","-73.9650938","11249",NA,NA,NA,NA,NA,NA,NA,NA,NA
"Unspecified",2012-09-13,"0","0","0","1","0","0","0","1",NA,NA,"12:49","2912389","PASSENGER VEHICLE",NA,"40.8819612","Point","-73.8165943",NA,NA,NA,NA,NA,NA,NA,NA,NA,NA
"Unspecified",2014-09-25,"0","0","0","0","0","1","0","1","KENMARE STREET","ELIZABETH STREET","13:35","1028777","VAN","MANHATTAN","40.7206259","Point","-73.9949711","10012",NA,NA,NA,NA,NA,NA,NA,NA,NA
"Unspecified",2012-09-05,"0","0","3","0","0","1","3","1","WESTBURY COURT","FLATBUSH AVENUE","23:54","152745","PASSENGER VEHICLE","BROOKLYN","40.656762","Point","-73.9601349","11225","Unspecified","PASSENGER VEHICLE","Unspecified","PASSENGER VEHICLE","Unspecified","Unspecified","PASSENGER VEHICLE","PASSENGER VEHICLE",NA
"Unspecified",2014-05-14,"0","0","0","0","0","1","0","1","CLEVELAND STREET","ATLANTIC AVENUE","22:52","335687","PASSENGER VEHICLE",NA,NA,NA,NA,NA,NA,NA,NA,NA,NA,NA,NA,NA,NA
"Physical Disability",2014-05-11,"0","0","0","1","0","0","0","1","PURDY AVENUE","BRADLEY AVENUE","12:37","334307","MOTORCYCLE",NA,NA,NA,NA,NA,"Unspecified","PASSENGER VEHICLE",NA,NA,NA,NA,NA,NA,NA
"Driver Inattention/Distraction",2014-05-11,"0","1","0","0","0","0","0","1","90 STREET","ROCKAWAY BOULEVARD","21:37","334103","UNKNOWN","QUEENS","40.6819859","Point","-73.8497633","11416","Unspecified","BICYCLE",NA,NA,NA,NA,NA,NA,NA
"Driver Inattention/Distraction",2014-05-04,"0","0","7","1","0","0","7","1","AVENUE N","REMSEN AVENUE","5:11","329938","SPORT UTILITY / STATION WAGON","BROOKLYN","40.6320498","Point","-73.8968596","11236","Unspecified","SPORT UTILITY / STATION WAGON","Unspecified","PASSENGER VEHICLE","Unspecified",NA,"SPORT UTILITY / STATION WAGON",NA,NA
"Unspecified",2014-05-03,"0","0","0","0","0","1","0","1","71 AVENUE","QUEENS BOULEVARD","20:28","330114","PASSENGER VEHICLE","QUEENS","40.7214535","Point","-73.8439779","11375",NA,NA,NA,NA,NA,NA,NA,NA,NA
"Traffic Control Disregarded",2014-05-01,"0","0","0","1","0","0","0","1",NA,NA,"3:51","3034890","PASSENGER VEHICLE",NA,"40.7446461","Point","-73.7703999",NA,NA,NA,NA,NA,NA,NA,NA,NA,NA
"Unspecified",2014-04-30,"0","0","0","1","0","0","0","1","QUENTIN ROAD","MARINE PARKWAY","14:22","328073","SPORT UTILITY / STATION WAGON","BROOKLYN","40.6118189","Point","-73.9411628","11234","Unspecified","SPORT UTILITY / STATION WAGON","Unspecified","SPORT UTILITY / STATION WAGON",NA,NA,NA,NA,NA
"Unspecified",2014-04-30,"0","0","0","0","1","1","1","1","7 AVENUE","WEST 31 STREET","14:30","327587","SPORT UTILITY / STATION WAGON","MANHATTAN","40.7491025","Point","-73.9920058","10001",NA,NA,NA,NA,NA,NA,NA,NA,NA
"Unspecified",2014-04-28,"0","0","1","1","0","0","1","1","FISH AVENUE","PELHAM PARKWAY NORTH","23:20","328249","PASSENGER VEHICLE","BRONX","40.8586838","Point","-73.8473975","10469","Unspecified","SPORT UTILITY / STATION WAGON","Unspecified","SPORT UTILITY / STATION WAGON",NA,NA,NA,NA,NA
"Lost Consciousness",2014-04-26,"0","0","0","1","2","0","2","1","BEAUMONT STREET","ORIENTAL BOULEVARD","15:00","325705","PASSENGER VEHICLE","BROOKLYN","40.5770881","Point","-73.9509957","11235","Unspecified","MOTORCYCLE",NA,NA,NA,NA,NA,NA,NA
"Unspecified",2014-04-26,"0","0","0","0","0","1","0","1","107 STREET","ATLANTIC AVENUE","21:00","326320","PASSENGER VEHICLE",NA,NA,NA,NA,NA,NA,NA,NA,NA,NA,NA,NA,NA,NA
"Unspecified",2014-04-23,"0","0","0","0","0","1","0","1","85 STREET","ATLANTIC AVENUE","15:30","324336","PASSENGER VEHICLE","QUEENS","40.6859635","Point","-73.8565294","11421",NA,NA,NA,NA,NA,NA,NA,NA,NA
"Following Too Closely",2015-04-12,"0","0","0","1","0","0","0","1","UTICA AVENUE","ATLANTIC AVENUE","22:57","3201898","SPORT UTILITY / STATION WAGON","BROOKLYN","40.6774132","Point","-73.9303181","11213","Unspecified","PASSENGER VEHICLE",NA,NA,NA,NA,NA,NA,NA
"Unspecified",2014-04-21,"0","0","0","0","0","1","0","1","34 AVENUE","11 STREET","17:30","324015","PICK-UP TRUCK","QUEENS","40.7646158","Point","-73.9377969","11106",NA,NA,NA,NA,NA,NA,NA,NA,NA
"Unspecified",2013-12-10,"0","0","0","1","0","0","0","1","CRESCENT STREET","QUEENS PLAZA SOUTH","1:58","244457","PASSENGER VEHICLE",NA,NA,NA,NA,NA,NA,NA,NA,NA,NA,NA,NA,NA,NA
"Unspecified",2014-04-17,"0","1","0","0","0","0","0","1","EAST 104 STREET","LEXINGTON AVENUE","16:45","321958","SPORT UTILITY / STATION WAGON","MANHATTAN","40.7909397","Point","-73.9472305","10029","Unspecified","BICYCLE",NA,NA,NA,NA,NA,NA,NA
"Unspecified",2014-04-16,"0","0","0","1","0","0","0","1","GEORGE STREET","CENTRAL AVENUE","4:37","321253","PASSENGER VEHICLE","BROOKLYN","40.7015733","Point","-73.9312919","11206",NA,"PASSENGER VEHICLE",NA,NA,NA,NA,NA,NA,NA
"Alcohol Involvement",2014-04-14,"0","0","2","1","0","0","2","1",NA,NA,"4:07","3018328","PASSENGER VEHICLE",NA,"40.6655218","Point","-73.7446568",NA,"Unspecified","SPORT UTILITY / STATION WAGON",NA,NA,NA,NA,NA,NA,NA
"Passenger Distraction",2014-04-10,"0","0","0","0","0","1","0","1","EAST 85 STREET","YORK AVENUE","23:27","318613","PASSENGER VEHICLE","MANHATTAN","40.7752455","Point","-73.9476221","10028","Unspecified","PASSENGER VEHICLE",NA,NA,NA,NA,NA,NA,NA
"Aggressive Driving/Road Rage",2014-04-09,"0","1","0","0","0","0","0","1","HALSEY STREET","BROADWAY","7:44","317712","PASSENGER VEHICLE",NA,NA,NA,NA,NA,"Unspecified","PASSENGER VEHICLE","Unspecified","BICYCLE",NA,NA,NA,NA,NA
"Alcohol Involvement",2014-04-08,"0","0","1","1","0","0","1","1","GLENWOOD ROAD","REMSEN AVENUE","4:47","317135","PASSENGER VEHICLE","BROOKLYN","40.6417288","Point","-73.9076365","11236","Traffic Control Disregarded","PASSENGER VEHICLE","Unspecified","PASSENGER VEHICLE","Unspecified",NA,"PASSENGER VEHICLE","PASSENGER VEHICLE",NA
"Lost Consciousness",2014-04-05,"0","0","0","1","0","0","0","1","DENNIS TORRICELLI SR STREET","SCHOOL ROAD","18:33","315896","MOTORCYCLE","STATEN ISLAND","40.6060442","Point","-74.0633482","10305","Unspecified","PASSENGER VEHICLE","Unspecified","SPORT UTILITY / STATION WAGON",NA,NA,NA,NA,NA
"Failure to Yield Right-of-Way",2014-04-03,"0","0","0","0","1","1","1","1","STORY AVENUE","SOUND VIEW AVENUE","15:36","314564","PASSENGER VEHICLE","BRONX","40.8229893","Point","-73.8678032","10473","Unspecified","PASSENGER VEHICLE",NA,NA,NA,NA,NA,NA,NA
"Unspecified",2014-04-02,"0","0","0","1","0","0","0","1",NA,NA,"6:00","3018297","PASSENGER VEHICLE",NA,"40.6655218","Point","-73.7446568",NA,NA,NA,NA,NA,NA,NA,NA,NA,NA
"Unspecified",2014-04-02,"0","0","0","0","0","1","0","1","MARTENSE STREET","BEDFORD AVENUE","8:17","332051","UNKNOWN","BROOKLYN","40.6513697","Point","-73.9559072","11226",NA,NA,NA,NA,NA,NA,NA,NA,NA
"Unspecified",2014-03-25,"0","0","0","0","0","1","0","1","LINDEN PLACE","32 AVENUE","9:17","310952","VAN","QUEENS","40.7677542","Point","-73.8319235","11354",NA,NA,NA,NA,NA,NA,NA,NA,NA
"Unspecified",2014-03-24,"0","0","0","0","0","1","0","1","WEST 232 STREET","NETHERLAND AVENUE","15:00","310260","PASSENGER VEHICLE","BRONX","40.8837907","Point","-73.9116002","10463",NA,NA,NA,NA,NA,NA,NA,NA,NA
"Failure to Yield Right-of-Way",2014-03-21,"0","0","0","0","0","1","0","1","EAST 16 STREET","GRAVESEND NECK ROAD","7:59","308929","SPORT UTILITY / STATION WAGON","BROOKLYN","40.5950296","Point","-73.9547346","11229",NA,NA,NA,NA,NA,NA,NA,NA,NA
"Backing Unsafely",2014-03-18,"0","0","0","0","0","1","0","1","AVENUE U","EAST 19 STREET","14:20","305568","SPORT UTILITY / STATION WAGON","BROOKLYN","40.5992503","Point","-73.9526071","11229",NA,NA,NA,NA,NA,NA,NA,NA,NA
"Failure to Yield Right-of-Way",2014-03-15,"0","0","0","0","0","1","0","1","WEST 19 STREET","7 AVENUE","17:45","304443","PASSENGER VEHICLE","MANHATTAN","40.7416425","Point","-73.9974342","10011",NA,NA,NA,NA,NA,NA,NA,NA,NA
"Unspecified",2014-03-07,"0","0","0","0","0","1","0","1","40 ROAD","NORTHERN BOULEVARD","22:15","279367","UNKNOWN","QUEENS","40.7509782","Point","-73.9347418","11101",NA,NA,NA,NA,NA,NA,NA,NA,NA
"Failure to Yield Right-of-Way",2014-03-01,"0","0","0","0","0","1","0","1","MEEKER AVENUE","UNION AVENUE","1:27","200979","BUS",NA,NA,NA,NA,NA,NA,NA,NA,NA,NA,NA,NA,NA,NA
"Failure to Yield Right-of-Way",2014-02-23,"0","0","2","0","0","1","2","1","CARROLL STREET","KINGSTON AVENUE","9:09","155720","LARGE COM VEH(6 OR MORE TIRES)","BROOKLYN","40.6667263","Point","-73.9424445","11213",NA,NA,NA,NA,NA,NA,NA,NA,NA
"Unspecified",2014-02-20,"0","0","0","0","0","1","0","1","131 STREET","JAMAICA AVENUE","6:32","208573","PASSENGER VEHICLE",NA,NA,NA,NA,NA,NA,NA,NA,NA,NA,NA,NA,NA,NA
"Backing Unsafely",2014-02-13,"0","0","0","0","0","1","0","1","63 STREET","8 AVENUE","10:42","144530","OTHER","BROOKLYN","40.6337945","Point","-74.0113274","11220",NA,NA,NA,NA,NA,NA,NA,NA,NA
"Passenger Distraction",2014-02-07,"0","0","0","0","0","1","0","1","WILLIAMS PLACE","ATLANTIC AVENUE","15:20","170366","LARGE COM VEH(6 OR MORE TIRES)","BROOKLYN","40.6757902","Point","-73.9026791","11207",NA,NA,NA,NA,NA,NA,NA,NA,NA
"Driver Inattention/Distraction",2015-04-09,"0","0","0","1","0","0","0","1",NA,NA,"13:11","3200119","PASSENGER VEHICLE",NA,"40.7515157","Point","-73.7476961",NA,"Driver Inattention/Distraction","SPORT UTILITY / STATION WAGON",NA,NA,NA,NA,NA,NA,NA
"Unspecified",2014-02-02,"0","1","0","0","0","0","0","1","CLASSON AVENUE","WASHINGTON AVENUE","6:13","155595","PASSENGER VEHICLE","BROOKLYN","40.6691965","Point","-73.9621101","11225","Unspecified","BICYCLE",NA,NA,NA,NA,NA,NA,NA
"Traffic Control Disregarded",2014-01-31,"0","0","0","1","0","0","0","1","EAST 101 STREET","FOSTER AVENUE","13:40","147265","VAN","BROOKLYN","40.6502446","Point","-73.9027344","11236","Unspecified","LARGE COM VEH(6 OR MORE TIRES)","Unspecified","PASSENGER VEHICLE","Unspecified","Unspecified","SPORT UTILITY / STATION WAGON","SPORT UTILITY / STATION WAGON",NA
"Unspecified",2014-01-25,"0","0","0","0","0","1","0","1","EAST 192 STREET","GRAND CONCOURSE","20:30","113193","SPORT UTILITY / STATION WAGON","BRONX","40.8642161","Point","-73.8957945","10458",NA,NA,NA,NA,NA,NA,NA,NA,NA
"Lost Consciousness",2014-01-19,"0","1","0","0","0","0","0","1","LENOX AVENUE","WEST 125 STREET","1:25","64859","BUS","MANHATTAN","40.8077723","Point","-73.9454833","10027","Unspecified","BICYCLE",NA,NA,NA,NA,NA,NA,NA
"Unspecified",2014-01-18,"0","0","0","0","0","1","0","1","GRAND AVENUE","69 PLACE","10:30","218825","SPORT UTILITY / STATION WAGON",NA,NA,NA,NA,NA,NA,NA,NA,NA,NA,NA,NA,NA,NA
"Traffic Control Disregarded",2014-01-17,"0","0","0","1","0","0","0","1","WEST 41 STREET","6 AVENUE","15:56","31559","SPORT UTILITY / STATION WAGON","MANHATTAN","40.7541768","Point","-73.9845951","10018","Unspecified","BUS",NA,NA,NA,NA,NA,NA,NA
"Failure to Yield Right-of-Way",2014-01-11,"0","0","0","0","0","1","0","1","GRAHAM AVENUE","VARET STREET","16:50","197672","SPORT UTILITY / STATION WAGON","BROOKLYN","40.7030534","Point","-73.9424961","11206",NA,NA,NA,NA,NA,NA,NA,NA,NA
"Unspecified",2014-01-06,"0","0","0","0","0","1","0","1","CRESCENT STREET","ATLANTIC AVENUE","18:01","169949","SPORT UTILITY / STATION WAGON","BROOKLYN","40.6816856","Point","-73.8715626","11208",NA,NA,NA,NA,NA,NA,NA,NA,NA
"Driver Inattention/Distraction",2014-01-05,"0","0","0","0","0","1","0","1","HIGHLAND AVENUE","169 STREET","21:09","237980","SPORT UTILITY / STATION WAGON","QUEENS","40.7123691","Point","-73.7939033","11432",NA,NA,NA,NA,NA,NA,NA,NA,NA
"Unspecified",2014-01-02,"0","0","0","0","0","1","0","1","EAST 187 STREET","SOUTHERN BOULEVARD","17:30","102383","SPORT UTILITY / STATION WAGON","BRONX","40.8533472","Point","-73.881667","10460",NA,NA,NA,NA,NA,NA,NA,NA,NA
"Unspecified",2014-01-02,"0","0","0","0","0","1","0","1","7 AVENUE","65 STREET","6:49","144219","SPORT UTILITY / STATION WAGON","BROOKLYN","40.6339615","Point","-74.0147538","11220","Unspecified","SPORT UTILITY / STATION WAGON",NA,NA,NA,NA,NA,NA,NA
"Traffic Control Disregarded",2014-01-01,"0","0","3","1","0","0","3","1",NA,NA,"2:04","3034573","SPORT UTILITY / STATION WAGON",NA,"40.7385394","Point","-73.8105031",NA,NA,NA,NA,NA,NA,NA,NA,NA,NA
"Traffic Control Disregarded",2013-12-31,"0","0","1","1","0","0","1","1","33 AVENUE","172 STREET","14:42","253861","PASSENGER VEHICLE","QUEENS","40.7672226","Point","-73.7936144","11358","Physical Disability","PASSENGER VEHICLE","Unspecified","PASSENGER VEHICLE",NA,NA,NA,NA,NA
"Unspecified",2013-12-30,"0","0","0","0","0","1","0","1","EAST 80 STREET","FOSTER AVENUE","7:46","147128","SPORT UTILITY / STATION WAGON","BROOKLYN","40.6405845","Point","-73.9189307","11236",NA,NA,NA,NA,NA,NA,NA,NA,NA
"Unspecified",2013-12-29,"0","0","0","0","0","1","0","1","NASSAU AVENUE","MCGUINNESS BOULEVARD","17:29","200726","PASSENGER VEHICLE","BROOKLYN","40.7246381","Point","-73.9481706","11222","Unspecified","SMALL COM VEH(4 TIRES)",NA,NA,NA,NA,NA,NA,NA
"Passenger Distraction",2013-12-28,"0","0","1","0","0","1","1","1",NA,NA,"4:46","2940915","PASSENGER VEHICLE",NA,"40.5846437","Point","-73.9601534",NA,NA,NA,NA,NA,NA,NA,NA,NA,NA
"Unspecified",2013-12-27,"0","0","1","0","0","1","1","1","NORTH RAILROAD AVENUE","GUYON AVENUE","17:40","300548","SPORT UTILITY / STATION WAGON","STATEN ISLAND","40.5647067","Point","-74.1272083","10306",NA,NA,NA,NA,NA,NA,NA,NA,NA
"Unspecified",2013-12-23,"0","0","0","0","0","1","0","1","EAST 43 STREET","AVENUE D","19:47","140118","UNKNOWN","BROOKLYN","40.6417152","Point","-73.9361062","11203",NA,NA,NA,NA,NA,NA,NA,NA,NA
"Traffic Control Disregarded",2013-12-21,"0","0","1","1","0","0","1","1","NEILL AVENUE","WILLIAMSBRIDGE ROAD","16:07","106348","MOTORCYCLE","BRONX","40.8541998","Point","-73.8544097","10461","Unspecified","PASSENGER VEHICLE",NA,NA,NA,NA,NA,NA,NA
"Failure to Yield Right-of-Way",2013-12-21,"0","0","0","1","0","1","0","2","58 STREET","QUEENS BOULEVARD","16:30","244624","MOTORCYCLE","QUEENS","40.7418634","Point","-73.9075049","11377",NA,NA,NA,NA,NA,NA,NA,NA,NA
"Driver Inattention/Distraction",2013-12-21,"0","0","0","0","0","1","0","1","1 AVENUE","EAST 56 STREET","17:16","37022","VAN","MANHATTAN","40.7576386","Point","-73.9634098","10022",NA,NA,NA,NA,NA,NA,NA,NA,NA
"Unspecified",2013-12-21,"0","0","0","0","0","1","0","1","SAINT MARKS AVENUE","EASTERN PARKWAY","21:23","162985","UNKNOWN",NA,NA,NA,NA,NA,NA,NA,NA,NA,NA,NA,NA,NA,NA
"Unspecified",2013-12-20,"0","0","0","0","0","1","0","1","WEST 155 STREET","AMSTERDAM AVENUE","17:51","69771","SPORT UTILITY / STATION WAGON","MANHATTAN","40.8315678","Point","-73.9429813","10032","Unspecified","PASSENGER VEHICLE",NA,NA,NA,NA,NA,NA,NA
"Unspecified",2013-12-14,"0","0","0","1","0","0","0","1","ARLINGTON AVENUE","HIGHLAND PLACE","2:42","169686","UNKNOWN","BROOKLYN","40.6813529","Point","-73.8811681","11208","Unspecified","SPORT UTILITY / STATION WAGON",NA,NA,NA,NA,NA,NA,NA
"Failure to Yield Right-of-Way",2013-12-12,"0","0","0","0","0","1","0","1","CASE STREET","ROOSEVELT AVENUE","11:25","258731","PASSENGER VEHICLE","QUEENS","40.74837","Point","-73.8769234","11373",NA,NA,NA,NA,NA,NA,NA,NA,NA
"Physical Disability",2013-12-03,"0","0","4","1","0","0","4","1","GRAHAM AVENUE","MEEKER AVENUE","6:02","200582","PASSENGER VEHICLE",NA,NA,NA,NA,NA,"Unspecified","PASSENGER VEHICLE","Unspecified","SPORT UTILITY / STATION WAGON","Unspecified","Unspecified","PASSENGER VEHICLE","PASSENGER VEHICLE",NA
"Unspecified",2013-11-29,"0","0","0","0","0","1","0","1",NA,NA,"5:40","2934576","PASSENGER VEHICLE",NA,NA,NA,NA,NA,NA,NA,NA,NA,NA,NA,NA,NA,NA
"Unspecified",2013-11-26,"0","0","0","0","0","1","0","1","EAST 89 STREET","2 AVENUE","17:20","51063","SPORT UTILITY / STATION WAGON","MANHATTAN","40.7798112","Point","-73.9503374","10128",NA,NA,NA,NA,NA,NA,NA,NA,NA
"Unspecified",2013-11-22,"0","0","0","0","0","1","0","1","GREENE STREET","CANAL STREET","15:00","4421","PASSENGER VEHICLE","MANHATTAN","40.7203761","Point","-74.0032612","10013",NA,NA,NA,NA,NA,NA,NA,NA,NA
"Passenger Distraction",2013-11-30,"0","0","0","0","0","1","0","1","5 AVENUE","EAST 44 STREET","14:31","31105","LARGE COM VEH(6 OR MORE TIRES)","MANHATTAN","40.7547827","Point","-73.9799352","10017",NA,NA,NA,NA,NA,NA,NA,NA,NA
"Driver Inattention/Distraction",2013-11-15,"0","0","0","1","0","0","0","1",NA,NA,"22:14","3017958","PASSENGER VEHICLE",NA,"40.7148726","Point","-73.7290966",NA,NA,NA,NA,NA,NA,NA,NA,NA,NA
"Traffic Control Disregarded",2013-11-10,"0","0","0","1","0","0","0","1","WEST 240 STREET","BROADWAY","0:15","108985","SPORT UTILITY / STATION WAGON","BRONX","40.8865285","Point","-73.8997812","10463",NA,NA,NA,NA,NA,NA,NA,NA,NA
"Unspecified",2013-11-05,"0","0","1","1","0","0","1","1","WEST 67 STREET","COLUMBUS AVENUE","1:29","54765","LARGE COM VEH(6 OR MORE TIRES)","MANHATTAN","40.7742266","Point","-73.9811136","10023","Unspecified","UNKNOWN",NA,NA,NA,NA,NA,NA,NA
"Unspecified",2013-11-02,"0","0","0","0","0","1","0","1","EAST 233 STREET","WHITE PLAINS ROAD","0:05","98813","SPORT UTILITY / STATION WAGON","BRONX","40.8934115","Point","-73.8573621","10466",NA,NA,NA,NA,NA,NA,NA,NA,NA
"Fatigued/Drowsy",2013-10-31,"0","0","1","1","0","0","1","1",NA,NA,"22:38","3065849","MOTORCYCLE",NA,NA,NA,NA,NA,"Unspecified","PASSENGER VEHICLE","Unspecified","SPORT UTILITY / STATION WAGON",NA,NA,NA,NA,NA
"Unspecified",2013-11-30,"0","0","8","1","0","0","8","1","AVENUE Y","OCEAN PARKWAY","19:56","115843","SPORT UTILITY / STATION WAGON","BROOKLYN","40.5888878","Point","-73.9656409","11235","Unspecified","SPORT UTILITY / STATION WAGON",NA,NA,NA,NA,NA,NA,NA
"Alcohol Involvement",2013-11-30,"0","0","2","1","0","0","2","1","159 AVENUE","98 STREET","1:25","232273","PASSENGER VEHICLE","QUEENS","40.6598458","Point","-73.835205","11414","Unspecified","PASSENGER VEHICLE","Unspecified","PASSENGER VEHICLE","Unspecified",NA,"PASSENGER VEHICLE",NA,NA
"Passenger Distraction",2013-10-30,"0","1","0","0","0","0","0","1","ST PAULS PLACE","THIRD AVENUE","6:38","80277","PASSENGER VEHICLE","BRONX","40.8359271","Point","-73.9029039","10456","Unspecified","BICYCLE",NA,NA,NA,NA,NA,NA,NA
"Passenger Distraction",2013-10-20,"0","1","0","0","0","0","0","1","SCHERMERHORN STREET","SMITH STREET","23:20","190714","SPORT UTILITY / STATION WAGON","BROOKLYN","40.6898703","Point","-73.9882988","11201","Unspecified","BICYCLE",NA,NA,NA,NA,NA,NA,NA
"Unspecified",2013-10-17,"0","0","0","1","0","0","0","1","AVENUE M","ROCKAWAY PARKWAY","4:54","146802","MOTORCYCLE","BROOKLYN","40.637108","Point","-73.8933748","11236","Unspecified","PASSENGER VEHICLE",NA,NA,NA,NA,NA,NA,NA
"Traffic Control Disregarded",2013-10-13,"0","0","1","1","0","0","1","1",NA,NA,"5:36","3056701","MOTORCYCLE",NA,"40.789022","Point","-73.8186415",NA,NA,NA,NA,NA,NA,NA,NA,NA,NA
"Unspecified",2012-08-26,"0","1","0","0","0","0","0","1","FRANKLIN AVENUE","FLUSHING AVENUE","21:08","194205","PASSENGER VEHICLE","BROOKLYN","40.698677","Point","-73.9588584","11205","Unspecified","BICYCLE",NA,NA,NA,NA,NA,NA,NA
"Unspecified",2013-10-11,"0","0","0","1","0","0","0","1","AVENUE S","COLEMAN STREET","12:59","128739","PASSENGER VEHICLE","BROOKLYN","40.6120748","Point","-73.9277462","11234","Unspecified","PASSENGER VEHICLE","Unspecified","PASSENGER VEHICLE",NA,NA,NA,NA,NA
"Driver Inattention/Distraction",2013-10-11,"0","0","0","0","0","1","0","1","AVENUE L","REMSEN AVENUE","20:29","146761","PASSENGER VEHICLE","BROOKLYN","40.6353138","Point","-73.9004935","11236",NA,NA,NA,NA,NA,NA,NA,NA,NA
"Failure to Yield Right-of-Way",2013-10-06,"0","0","0","0","0","1","0","1","CHERRY AVENUE","MAIN STREET","17:38","252454","PASSENGER VEHICLE","QUEENS","40.7524887","Point","-73.8268873","11355",NA,NA,NA,NA,NA,NA,NA,NA,NA
"Unspecified",2013-10-04,"0","0","0","0","0","1","0","1","206 STREET","53 AVENUE","19:55","262874","PASSENGER VEHICLE","QUEENS","40.7502348","Point","-73.7728818","11364",NA,NA,NA,NA,NA,NA,NA,NA,NA
"Unspecified",2013-10-04,"0","0","0","0","0","1","0","1","SIMONSON AVENUE","RICHMOND TERRACE","6:18","291585","PASSENGER VEHICLE",NA,NA,NA,NA,NA,NA,NA,NA,NA,NA,NA,NA,NA,NA
"Unspecified",2013-10-02,"0","0","0","0","0","1","0","1","EAST 160 STREET","MELROSE AVENUE","7:16","80182","BUS","BRONX","40.8235793","Point","-73.914166","10451",NA,NA,NA,NA,NA,NA,NA,NA,NA
"Driver Inattention/Distraction",2013-10-01,"0","0","1","0","0","1","1","1",NA,NA,"10:50","299607","SPORT UTILITY / STATION WAGON",NA,NA,NA,NA,NA,NA,NA,NA,NA,NA,NA,NA,NA,"P/L OF 2424 HYLAN BLVD"
"Traffic Control Disregarded",2013-09-28,"0","0","6","1","0","0","6","1",NA,NA,"5:00","2965431","PASSENGER VEHICLE",NA,NA,NA,NA,NA,"Unspecified","TAXI","Unspecified","PASSENGER VEHICLE",NA,NA,NA,NA,NA
"Drugs (Illegal)",2013-09-27,"0","0","0","0","0","1","0","1","160 STREET","ARCHER AVENUE","11:37","211820","SPORT UTILITY / STATION WAGON","QUEENS","40.7027402","Point","-73.7984161","11433",NA,NA,NA,NA,NA,NA,NA,NA,NA
"Unspecified",2013-09-27,"0","0","0","0","0","1","0","1",NA,NA,"15:50","124515","SPORT UTILITY / STATION WAGON",NA,NA,NA,NA,NA,NA,NA,NA,NA,NA,NA,NA,NA,"1672 86 ST(GAS STATION)"
"Unspecified",2013-09-26,"0","0","0","0","0","1","0","1","55 STREET","5 AVENUE","15:23","158953","SPORT UTILITY / STATION WAGON","BROOKLYN","40.6423059","Point","-74.0132314","11220",NA,NA,NA,NA,NA,NA,NA,NA,NA
"Traffic Control Disregarded",2013-09-24,"0","0","1","1","0","0","1","1",NA,NA,"3:45","2889234","PASSENGER VEHICLE",NA,NA,NA,NA,NA,"Unspecified","PASSENGER VEHICLE","Unspecified","OTHER","Unspecified",NA,"OTHER",NA,NA
"Outside Car Distraction",2013-09-23,"0","0","2","0","0","1","2","1","WHITESTONE EXPRESSWAY","20 AVENUE","14:11","252266","PASSENGER VEHICLE",NA,NA,NA,NA,NA,NA,NA,NA,NA,NA,NA,NA,NA,NA
"Prescription Medication",2013-09-21,"0","0","0","1","0","0","0","1","BAY RIDGE AVENUE","3 AVENUE","16:08","143558","SPORT UTILITY / STATION WAGON","BROOKLYN","40.6357409","Point","-74.0260387","11220","Unspecified","MOTORCYCLE",NA,NA,NA,NA,NA,NA,NA
"Unspecified",2013-09-17,"0","0","0","0","0","1","0","1","13 AVENUE","BAY RIDGE PARKWAY","11:39","143533","PICK-UP TRUCK","BROOKLYN","40.6203042","Point","-74.0074276","11228","Unspecified","SPORT UTILITY / STATION WAGON",NA,NA,NA,NA,NA,NA,NA
"Traffic Control Disregarded",2013-09-17,"0","0","0","1","0","0","0","1","64 STREET","ROOSEVELT AVENUE","15:24","243469","MOTORCYCLE","QUEENS","40.7459414","Point","-73.900054","11377","Unspecified","SPORT UTILITY / STATION WAGON",NA,NA,NA,NA,NA,NA,NA
"Unspecified",2013-09-15,"0","0","3","1","0","0","3","1","STONE AVENUE","LINDEN BOULEVARD","12:39","162449","PASSENGER VEHICLE","BROOKLYN","40.6553118","Point","-73.9031775","11212","Unspecified","PASSENGER VEHICLE",NA,NA,NA,NA,NA,NA,NA
"Unspecified",2013-09-14,"0","0","1","2","0","0","1","2","24 STREET","20 AVENUE","16:28","277406","MOTORCYCLE","QUEENS","40.782856","Point","-73.9107303","11105","Unspecified","SPORT UTILITY / STATION WAGON",NA,NA,NA,NA,NA,NA,NA
"Alcohol Involvement",2013-09-13,"0","0","0","0","0","1","0","1","97 AVENUE","117 STREET","19:03","207152","PASSENGER VEHICLE","QUEENS","40.6906979","Point","-73.8282846","11419","Unspecified","PASSENGER VEHICLE","Unspecified","PASSENGER VEHICLE",NA,NA,NA,NA,NA
"Other Electronic Device",2013-09-13,"0","0","1","0","0","1","1","1","27 STREET","QUEENS PLAZA NORTH","21:49","243437","SPORT UTILITY / STATION WAGON",NA,NA,NA,NA,NA,NA,NA,NA,NA,NA,NA,NA,NA,NA
"Alcohol Involvement",2012-08-24,"0","0","0","0","0","1","0","1","SAINT JOHN AVENUE","TIMPSON PLACE","1:13","76434","PASSENGER VEHICLE","BRONX","40.812181","Point","-73.9010925","10455","Unspecified","SPORT UTILITY / STATION WAGON","Unspecified","PASSENGER VEHICLE",NA,NA,NA,NA,NA
"Unspecified",2012-08-24,"0","0","0","0","0","1","0","1",NA,NA,"22:50","3033279","PASSENGER VEHICLE",NA,"40.7161366","Point","-73.8184852",NA,NA,NA,NA,NA,NA,NA,NA,NA,NA
"Passenger Distraction",2013-09-08,"0","0","0","0","0","1","0","1","CROSS BX EXPRESSWAY","JEROME AVENUE","2:18","87586","SPORT UTILITY / STATION WAGON","BRONX","40.8451775","Point","-73.9141598","10452",NA,NA,NA,NA,NA,NA,NA,NA,NA
"Traffic Control Disregarded",2013-09-08,"0","0","0","1","0","0","0","1","WEST 56 STREET","WEST SIDE HIGHWAY","3:08","42631","PASSENGER VEHICLE","MANHATTAN","40.7707422","Point","-73.9945485","10019",NA,NA,NA,NA,NA,NA,NA,NA,NA
"Unspecified",2013-11-26,"0","0","1","0","0","1","1","1","FARMERS BOULEVARD","ROCKAWAY BOULEVARD","6:19","226425","SPORT UTILITY / STATION WAGON","QUEENS","40.6596509","Point","-73.7738282","11434",NA,NA,NA,NA,NA,NA,NA,NA,NA
"Failure to Yield Right-of-Way",2013-11-25,"0","0","0","0","0","1","0","1","EUCLID AVENUE","SUTTER AVENUE","10:17","169441","OTHER","BROOKLYN","40.6728582","Point","-73.871302","11208",NA,NA,NA,NA,NA,NA,NA,NA,NA
"Unspecified",2013-09-06,"0","0","0","1","0","0","0","1","CHRISTIE AVENUE","JUNCTION BOULEVARD","20:12","258002","MOTORCYCLE","QUEENS","40.7398367","Point","-73.8671454","11368",NA,NA,NA,NA,NA,NA,NA,NA,NA
"Driver Inattention/Distraction",2012-08-23,"0","0","1","0","2","1","3","1","BEAVER STREET","BROAD STREET","13:22","516","SPORT UTILITY / STATION WAGON","MANHATTAN","40.70495","Point","-74.0115487","10004",NA,NA,NA,NA,NA,NA,NA,NA,NA
"Driver Inattention/Distraction",2015-04-05,"0","1","0","0","0","0","0","1","EAST 158 STREET","GRAND CONCOURSE","17:14","3197904","VAN","BRONX","40.8254139","Point","-73.923475","10451","Unspecified","BICYCLE",NA,NA,NA,NA,NA,NA,NA
"Failure to Yield Right-of-Way",2013-09-04,"0","0","0","1","0","0","0","1","QUEENS BOULEVARD","39 STREET","15:38","243337","SPORT UTILITY / STATION WAGON","QUEENS","40.7440288","Point","-73.9261524","11101","Unspecified","MOTORCYCLE",NA,NA,NA,NA,NA,NA,NA
"Lost Consciousness",2013-09-03,"0","0","2","1","0","0","2","1","197 STREET","LINDEN BOULEVARD","19:14","271024","PASSENGER VEHICLE",NA,NA,NA,NA,NA,"Unspecified","PASSENGER VEHICLE","Unspecified","PASSENGER VEHICLE",NA,NA,NA,NA,NA
"Traffic Control Disregarded",2015-04-05,"0","0","0","2","0","0","0","2","168 STREET","GRAND CENTRAL PARKWAY E SVC RD","4:25","3198094","PASSENGER VEHICLE",NA,NA,NA,NA,NA,NA,NA,NA,NA,NA,NA,NA,NA,NA
"Traffic Control Disregarded",2013-08-31,"0","0","0","0","0","1","0","1","AUSTIN PLACE","BRUCKNER BOULEVARD","3:01","77862","UNKNOWN","BRONX","40.8113299","Point","-73.9007723","10455",NA,NA,NA,NA,NA,NA,NA,NA,NA
"Alcohol Involvement",2013-11-24,"0","0","0","0","0","1","0","1","WEST 129 STREET","SAINT NICHOLAS AVENUE","10:00","63351","PASSENGER VEHICLE","MANHATTAN","40.8131597","Point","-73.9503486","10027",NA,NA,NA,NA,NA,NA,NA,NA,NA
"Unspecified",2012-08-22,"0","0","1","1","0","0","1","1",NA,NA,"12:25","2927013","MOTORCYCLE",NA,NA,NA,NA,NA,"Unspecified","SPORT UTILITY / STATION WAGON","Unspecified","LARGE COM VEH(6 OR MORE TIRES)",NA,NA,NA,NA,NA
"Passenger Distraction",2013-08-27,"0","0","0","0","0","1","0","1","SEWARD AVENUE","WHITE PLAINS ROAD","20:24","83742","PASSENGER VEHICLE","BRONX","40.8198786","Point","-73.857769","10473",NA,NA,NA,NA,NA,NA,NA,NA,NA
"Backing Unsafely",2013-08-26,"0","0","0","0","0","1","0","1","BROADWAY","BOERUM STREET","16:12","196687","SPORT UTILITY / STATION WAGON","BROOKLYN","40.7052279","Point","-73.9498375","11206",NA,NA,NA,NA,NA,NA,NA,NA,NA
"Unspecified",2013-08-25,"0","0","0","1","0","0","0","1",NA,NA,"20:41","2944071","MOTORCYCLE",NA,"40.5839626","Point","-73.9252914",NA,NA,NA,NA,NA,NA,NA,NA,NA,NA
"Unspecified",2013-08-24,"0","0","0","1","0","0","0","1","ROCKAWAY PARKWAY","AVENUE L","18:03","146571","MOTORCYCLE","BROOKLYN","40.63874","Point","-73.8951918","11236",NA,NA,NA,NA,NA,NA,NA,NA,NA
"Traffic Control Disregarded",2013-08-24,"0","0","1","2","0","0","1","2","BEACH 41 STREET","ROCKAWAY FREEWAY","3:00","203203","PASSENGER VEHICLE","QUEENS","40.5933206","Point","-73.7727134","11691","Unspecified","PASSENGER VEHICLE",NA,NA,NA,NA,NA,NA,NA
"Traffic Control Disregarded",2013-08-23,"0","0","0","1","0","0","0","1",NA,NA,"10:36","2849076","MOTORCYCLE",NA,"40.7850321","Point","-73.9405708",NA,NA,NA,NA,NA,NA,NA,NA,NA,NA
"Failure to Yield Right-of-Way",2012-08-21,"0","0","3","1","0","0","3","1","WILLIAMSBRIDGE ROAD","BRONXWOOD AVENUE","21:32","103051","PASSENGER VEHICLE","BRONX","40.8675505","Point","-73.8615031","10469","Unspecified","SPORT UTILITY / STATION WAGON",NA,NA,NA,NA,NA,NA,NA
"Unspecified",2013-08-23,"0","0","0","0","0","1","0","1","CLINTON STREET","EAST HOUSTON STREET","16:55","13308","VAN","MANHATTAN","40.721473","Point","-73.9838235","10002",NA,NA,NA,NA,NA,NA,NA,NA,NA
"Unspecified",2012-12-14,"0","0","0","0","0","1","0","1",NA,NA,"18:07","3017137","PASSENGER VEHICLE",NA,"40.6670627","Point","-73.7391857",NA,NA,NA,NA,NA,NA,NA,NA,NA,NA
"Physical Disability",2013-08-21,"0","0","0","1","0","0","0","1","WEST BROADWAY","WEST HOUSTON STREET","17:25","3610","MOTORCYCLE","MANHATTAN","40.7269334","Point","-73.999917","10012","Unspecified","VAN",NA,NA,NA,NA,NA,NA,NA
"Driver Inattention/Distraction",2013-08-17,"0","0","0","0","0","1","0","1","MADISON AVENUE","EAST 57 STREET","2:16","42419","OTHER","MANHATTAN","40.762288","Point","-73.9723632","10022",NA,NA,NA,NA,NA,NA,NA,NA,NA
"Unspecified",2013-08-17,"0","0","1","0","0","1","1","1","WEST 167 STREET","AMSTERDAM AVENUE","4:19","69398","MOTORCYCLE",NA,NA,NA,NA,NA,NA,NA,NA,NA,NA,NA,NA,NA,NA
"Unspecified",2013-08-16,"0","0","0","1","0","0","0","1",NA,NA,"10:55","2839297","MOTORCYCLE",NA,"40.7328333","Point","-73.9741445",NA,NA,NA,NA,NA,NA,NA,NA,NA,NA
"Unspecified",2013-08-16,"0","0","1","1","0","0","1","1","78 AVENUE","WOODHAVEN BOULEVARD","4:32","217328","MOTORCYCLE","QUEENS","40.7068736","Point","-73.8591426","11385","Unspecified","PASSENGER VEHICLE",NA,NA,NA,NA,NA,NA,NA
"Traffic Control Disregarded",2013-08-15,"0","0","1","1","0","0","1","1","BEACH 38 STREET","SURF AVENUE","17:05","115384","SPORT UTILITY / STATION WAGON","BROOKLYN","40.5741231","Point","-74.0040784","11224",NA,NA,NA,NA,NA,NA,NA,NA,NA
"Failure to Yield Right-of-Way",2013-08-15,"0","0","1","1","0","0","1","1","EAGLE STREET","MANHATTAN AVENUE","21:10","200087","PASSENGER VEHICLE","BROOKLYN","40.7351589","Point","-73.9550724","11222","Unspecified","MOTORCYCLE",NA,NA,NA,NA,NA,NA,NA
"Traffic Control Disregarded",2013-08-15,"0","0","1","1","0","0","1","1","WEST 1 STREET","WEST BRIGHTON AVENUE","2:03","115380","SPORT UTILITY / STATION WAGON","BROOKLYN","40.5764221","Point","-73.9697655","11224",NA,NA,NA,NA,NA,NA,NA,NA,NA
"Unspecified",2013-08-14,"0","1","0","0","0","0","0","1","84 STREET","160 AVENUE","18:29","231320","PASSENGER VEHICLE","QUEENS","40.6563005","Point","-73.8478533","11414","Unspecified","BICYCLE",NA,NA,NA,NA,NA,NA,NA
"Unspecified",2013-08-11,"0","0","0","1","0","1","0","2","44 STREET","QUEENS BOULEVARD","3:44","243103","MOTORCYCLE","QUEENS","40.7433745","Point","-73.9205559","11104",NA,NA,NA,NA,NA,NA,NA,NA,NA
"Traffic Control Disregarded",2013-08-11,"0","0","0","1","0","0","0","1","KEAP STREET","BROADWAY","4:35","196593","TAXI","BROOKLYN","40.7075935","Point","-73.9555418","11211","Unspecified","MOTORCYCLE",NA,NA,NA,NA,NA,NA,NA
"Unspecified",2013-08-09,"0","0","0","0","2","1","2","1","NEWBERRY AVENUE","RICHMOND ROAD","20:26","299141","UNKNOWN","STATEN ISLAND","40.595951","Point","-74.0958614","10304",NA,NA,NA,NA,NA,NA,NA,NA,NA
"Traffic Control Disregarded",2013-08-07,"0","0","0","1","0","0","0","1","CLARENDON ROAD","UTICA AVENUE","4:10","138770","PASSENGER VEHICLE","BROOKLYN","40.6444315","Point","-73.9295994","11203","Unspecified","VAN","Unspecified","PICK-UP TRUCK",NA,NA,NA,NA,NA
"Unspecified",2013-08-06,"0","0","0","1","0","0","0","1",NA,NA,"1:05","3107851","PASSENGER VEHICLE",NA,"40.610422","Point","-74.1512",NA,NA,NA,NA,NA,NA,NA,NA,NA,NA
"Unspecified",2013-08-04,"0","0","1","1","0","0","1","1","EAST 187 STREET","WEBSTER AVENUE","0:45","101698","OTHER",NA,NA,NA,NA,NA,"Unspecified","VAN",NA,NA,NA,NA,NA,NA,NA
"Aggressive Driving/Road Rage",2013-08-01,"0","0","0","1","0","0","0","1","9 AVENUE","WEST 25 STREET","0:11","19735","MOTORCYCLE","MANHATTAN","40.7477688","Point","-74.000397","10001","Unspecified","SPORT UTILITY / STATION WAGON","Unspecified","SPORT UTILITY / STATION WAGON",NA,NA,NA,NA,NA
"Driver Inattention/Distraction",2015-04-02,"0","0","0","0","0","1","0","1","WEST 258 STREET","RIVERDALE AVENUE","21:54","3196975","PASSENGER VEHICLE","BRONX","40.9059675","Point","-73.904339","10471",NA,NA,NA,NA,NA,NA,NA,NA,NA
"Unspecified",2013-08-01,"0","0","0","0","0","1","0","1","LANSING AVENUE","230 PLACE","5:10","224727","PASSENGER VEHICLE","QUEENS","40.6643263","Point","-73.7466882","11413",NA,NA,NA,NA,NA,NA,NA,NA,NA
"Failure to Yield Right-of-Way",2013-07-31,"0","0","0","0","0","1","0","1","ELLWOOD STREET","SHERMAN AVENUE","20:02","71663","PASSENGER VEHICLE","MANHATTAN","40.8622161","Point","-73.9296942","10040",NA,NA,NA,NA,NA,NA,NA,NA,NA
"Failure to Yield Right-of-Way",2013-07-31,"0","0","0","0","0","1","0","1","3 AVENUE","EAST 60 STREET","22:18","49526","OTHER","MANHATTAN","40.7621793","Point","-73.9661291","10022",NA,NA,NA,NA,NA,NA,NA,NA,NA
"Backing Unsafely",2013-07-30,"0","0","0","0","0","1","0","1","69 AVENUE","164 STREET","12:39","236423","SPORT UTILITY / STATION WAGON","QUEENS","40.7330977","Point","-73.8049779","11365",NA,NA,NA,NA,NA,NA,NA,NA,NA
"Physical Disability",2013-07-30,"0","0","1","1","0","0","1","1","UNION TURNPIKE","SPRINGFIELD BOULEVARD","1:07","262382","MOTORCYCLE","QUEENS","40.7357781","Point","-73.7465392","11364","Unspecified","BUS",NA,NA,NA,NA,NA,NA,NA
"Unspecified",2013-07-28,"0","0","0","0","0","1","0","1","5 AVENUE","EAST 32 STREET","5:10","29789","PASSENGER VEHICLE","MANHATTAN","40.7471531","Point","-73.9854954","10016",NA,NA,NA,NA,NA,NA,NA,NA,NA
"Unspecified",2013-07-27,"0","0","0","0","0","1","0","1","AVENUE W","NOSTRAND AVENUE","22:10","119571","PASSENGER VEHICLE","BROOKLYN","40.595921","Point","-73.9410184","11229",NA,NA,NA,NA,NA,NA,NA,NA,NA
"Traffic Control Disregarded",2013-07-26,"0","0","0","1","0","0","0","1","EAST 174 STREET","WEST FARMS ROAD","2:38","79948","PASSENGER VEHICLE","BRONX","40.8354522","Point","-73.8822264","10460",NA,NA,NA,NA,NA,NA,NA,NA,NA
"Passenger Distraction",2013-11-18,"0","1","0","0","0","0","0","1","FROST STREET","MEEKER AVENUE","3:53","200547","BICYCLE",NA,NA,NA,NA,NA,"Unspecified","UNKNOWN",NA,NA,NA,NA,NA,NA,NA
"Driver Inattention/Distraction",2013-07-22,"0","0","0","0","0","1","0","1","CLARKSON AVENUE","FLATBUSH AVENUE","12:00","150494","VAN","BROOKLYN","40.6548405","Point","-73.9596963","11226",NA,NA,NA,NA,NA,NA,NA,NA,NA
"Fatigued/Drowsy",2013-07-20,"0","0","1","1","0","0","1","1",NA,NA,"4:28","3079966","SPORT UTILITY / STATION WAGON",NA,"40.7522009","Point","-73.7261217",NA,NA,NA,NA,NA,NA,NA,NA,NA,NA
"Unspecified",2015-04-01,"0","0","0","0","0","1","0","1","UTOPIA PARKWAY","46 AVENUE","23:38","3196666","UNKNOWN",NA,NA,NA,NA,NA,NA,NA,NA,NA,NA,NA,NA,NA,NA
"Unspecified",2015-04-01,"0","0","0","0","0","1","0","1","UTOPIA PARKWAY","46 AVENUE","23:38","3196687","UNKNOWN",NA,NA,NA,NA,NA,NA,NA,NA,NA,NA,NA,NA,NA,NA
"Unspecified",2015-04-01,"0","0","0","0","0","1","0","1","UTOPIA PARKWAY","46 AVENUE","23:38","3196691","UNKNOWN",NA,NA,NA,NA,NA,NA,NA,NA,NA,NA,NA,NA,NA,NA
"Unspecified",2013-07-18,"0","0","0","0","0","1","0","1","132 AVENUE","ROCKAWAY BOULEVARD","18:14","270695","SMALL COM VEH(4 TIRES)","QUEENS","40.6715676","Point","-73.784653","11434",NA,NA,NA,NA,NA,NA,NA,NA,NA
"Unspecified",2013-07-13,"0","0","0","0","0","1","0","1","73 STREET","BAY PARKWAY","21:14","124028","PASSENGER VEHICLE","BROOKLYN","40.6093299","Point","-73.9861304","11204",NA,NA,NA,NA,NA,NA,NA,NA,NA
"Unspecified",2013-11-15,"0","0","0","0","0","1","0","1","EDENWALD AVENUE","BAYCHESTER AVENUE","20:14","98923","VAN","BRONX","40.8929052","Point","-73.843655","10466","Unspecified","SPORT UTILITY / STATION WAGON",NA,NA,NA,NA,NA,NA,NA
"Unspecified",2013-07-11,"0","0","0","1","0","0","0","1","BROOKVILLE BOULEVARD","SUNRISE HIGHWAY","5:28","224432","UNKNOWN","QUEENS","40.6656299","Point","-73.7392073","11422",NA,NA,NA,NA,NA,NA,NA,NA,NA
"Traffic Control Disregarded",2013-07-26,"0","0","0","1","0","0","0","1","AVENUE B","EAST 91 STREET","16:40","138676","MOTORCYCLE","BROOKLYN","40.6500214","Point","-73.9155461","11236","Unspecified","PASSENGER VEHICLE","Unspecified","UNKNOWN","Unspecified",NA,"PASSENGER VEHICLE",NA,NA
"Physical Disability",2013-07-07,"0","0","1","1","0","0","1","1","212 STREET","50 AVENUE","19:38","262199","PASSENGER VEHICLE","QUEENS","40.7533324","Point","-73.7681322","11364","Unspecified","PASSENGER VEHICLE",NA,NA,NA,NA,NA,NA,NA
"Unspecified",2013-07-07,"0","0","0","1","0","0","0","1","WALLACE AVENUE","PELHAM PARKWAY SOUTH","23:41","105263","SPORT UTILITY / STATION WAGON",NA,NA,NA,NA,NA,NA,"MOTORCYCLE",NA,NA,NA,NA,NA,NA,NA
"Traffic Control Disregarded",2013-07-07,"0","0","2","1","0","0","2","1","AVENUE J","OCEAN PARKWAY","2:44","132900","PASSENGER VEHICLE","BROOKLYN","40.6241708","Point","-73.9704715","11230",NA,NA,NA,NA,NA,NA,NA,NA,NA
"Unspecified",2013-07-05,"0","0","0","0","0","1","0","1","ST MARKS AVENUE","FLATBUSH AVENUE","0:26","177924","PASSENGER VEHICLE","BROOKLYN","40.6797343","Point","-73.9743118","11217",NA,NA,NA,NA,NA,NA,NA,NA,NA
"Unspecified",2013-11-14,"0","0","0","0","0","1","0","1",NA,NA,"23:28","2927706","UNKNOWN",NA,NA,NA,NA,NA,NA,NA,NA,NA,NA,NA,NA,NA,NA
"Unspecified",2013-07-02,"0","0","0","0","0","1","0","1","EAST 82 STREET","EAST END AVENUE","16:22","49207","PASSENGER VEHICLE","MANHATTAN","40.7723521","Point","-73.9466568","10028",NA,NA,NA,NA,NA,NA,NA,NA,NA
"Alcohol Involvement",2013-06-29,"0","0","3","2","0","0","3","2",NA,NA,"3:50","3034014","PASSENGER VEHICLE",NA,"40.7191256","Point","-73.7913993",NA,NA,NA,NA,NA,NA,NA,NA,NA,NA
"Unspecified",2013-06-26,"0","0","0","0","0","1","0","1","EAST 20 STREET","THIRD AVENUE","10:36","24233","BUS","MANHATTAN","40.7369617","Point","-73.9845089","10003",NA,NA,NA,NA,NA,NA,NA,NA,NA
"Unspecified",2013-11-12,"0","0","0","0","0","1","0","1","129 STREET","14 AVENUE","6:16","253037","PASSENGER VEHICLE","QUEENS","40.7856002","Point","-73.839357","11356","Unspecified","VAN",NA,NA,NA,NA,NA,NA,NA
"Failure to Yield Right-of-Way",2013-11-11,"0","0","3","0","0","1","3","1","EAST 102 STREET","PARK AVENUE","12:50","57151","VAN","MANHATTAN","40.79037","Point","-73.9497662","10029","Failure to Yield Right-of-Way","PASSENGER VEHICLE","Unspecified","MOTORCYCLE","Unspecified",NA,"VAN",NA,NA
"Unspecified",2013-06-24,"0","0","0","0","1","1","1","1","DEREIMER AVENUE","PITMAN AVENUE","16:27","97798","PASSENGER VEHICLE","BRONX","40.8968966","Point","-73.8441665","10466","Unspecified","SPORT UTILITY / STATION WAGON","Unspecified","TAXI","Unspecified","Unspecified","PASSENGER VEHICLE","SPORT UTILITY / STATION WAGON",NA
"Traffic Control Disregarded",2013-11-11,"0","0","1","0","0","2","1","2","REEDER STREET","QUEENS BOULEVARD","7:26","258480","PASSENGER VEHICLE","QUEENS","40.7369781","Point","-73.8784023","11373","Unspecified","PASSENGER VEHICLE","Unspecified","PASSENGER VEHICLE",NA,NA,NA,NA,NA
"Unspecified",2013-06-21,"0","0","1","1","0","0","1","1","SNUG HARBOR ROAD","RICHMOND TERRACE","9:24","288608","MOTORCYCLE",NA,NA,NA,NA,NA,"Unspecified","PASSENGER VEHICLE",NA,NA,NA,NA,NA,NA,NA
"Traffic Control Disregarded",2013-06-20,"0","0","1","1","0","0","1","1",NA,NA,"0:45","2968312","MOTORCYCLE",NA,"40.6412074","Point","-73.8771979",NA,"Unspecified","UNKNOWN",NA,NA,NA,NA,NA,NA,NA
"Unspecified",2013-06-16,"0","0","0","0","0","1","0","1","ONEIDA AVENUE","EAST 233 STREET","3:33","97734","UNKNOWN","BRONX","40.8962424","Point","-73.8724104","10470","Unspecified","UNKNOWN",NA,NA,NA,NA,NA,NA,NA
"Unspecified",2013-11-09,"0","0","3","2","0","0","3","2",NA,NA,"7:08","2913767","SPORT UTILITY / STATION WAGON",NA,"40.8750199","Point","-73.8186057",NA,"Unspecified","PASSENGER VEHICLE","Unspecified","SPORT UTILITY / STATION WAGON",NA,NA,NA,NA,NA
"Unspecified",2013-11-08,"0","0","0","0","0","1","0","1","HUNTS POINT AVENUE","LAFAYETTE AVENUE","10:25","78132","PICK-UP TRUCK","BRONX","40.8166622","Point","-73.8879967","10474",NA,NA,NA,NA,NA,NA,NA,NA,NA
"Unspecified",2013-06-13,"0","0","0","0","0","1","0","1","EAST NEW YORK AVENUE","ROCKAWAY PARKWAY","0:52","138205","BUS","BROOKLYN","40.6659178","Point","-73.9254639","11213",NA,NA,NA,NA,NA,NA,NA,NA,NA
"Pavement Slippery",2013-06-13,"0","0","0","0","0","1","0","1","RESERVOIR AVENUE","WEST KINGSBRIDGE ROAD","20:57","108347","PASSENGER VEHICLE",NA,NA,NA,NA,NA,NA,NA,NA,NA,NA,NA,NA,NA,NA
"Unspecified",2013-06-13,"0","0","0","0","0","1","0","1","EAST 184 STREET","GRAND CONCOURSE","23:11","93577","PASSENGER VEHICLE","BRONX","40.8593085","Point","-73.8988389","10468",NA,NA,NA,NA,NA,NA,NA,NA,NA
"Failure to Yield Right-of-Way",2013-06-13,"0","0","0","0","0","1","0","1","CLOVERDALE BOULEVARD","HORACE HARDING EXPRESSWAY","7:27","262007","PASSENGER VEHICLE",NA,NA,NA,NA,NA,NA,NA,NA,NA,NA,NA,NA,NA,NA
"Unspecified",2013-06-11,"0","0","0","1","2","0","2","1","PROSPECT AVENUE","EAST 160 STREET","12:44","74581","TAXI","BRONX","40.8196938","Point","-73.9016016","10459","Unspecified","PASSENGER VEHICLE","Unspecified","PASSENGER VEHICLE",NA,NA,NA,NA,NA
"Traffic Control Disregarded",2013-06-11,"0","0","0","1","0","0","0","1","HAVEMEYER STREET","SOUTH 5 STREET","4:23","196165","PASSENGER VEHICLE","BROOKLYN","40.7095517","Point","-73.9588589","11211",NA,NA,NA,NA,NA,NA,NA,NA,NA
"Unspecified",2013-06-10,"0","0","1","0","0","1","1","1","FRANKLIN AVENUE","EASTERN PARKWAY","23:47","154210","PASSENGER VEHICLE","BROOKLYN","40.670658","Point","-73.9579745","11238",NA,NA,NA,NA,NA,NA,NA,NA,NA
"Unspecified",2013-06-06,"0","1","0","0","0","0","0","1","PARK AVENUE","EAST 125 STREET","20:57","61006","PASSENGER VEHICLE","MANHATTAN","40.8050573","Point","-73.9390342","10035","Unspecified","PASSENGER VEHICLE","Unspecified","BICYCLE",NA,NA,NA,NA,NA
"Traffic Control Disregarded",2014-05-22,"0","0","0","1","0","0","0","1",NA,NA,"2:29","2837109","MOTORCYCLE",NA,NA,NA,NA,NA,NA,NA,NA,NA,NA,NA,NA,NA,NA
"Unspecified",2014-05-21,"0","0","0","0","0","1","0","1",NA,NA,"9:05","339109","OTHER","QUEENS","40.7317311","Point","-73.8511269","11375",NA,NA,NA,NA,NA,NA,NA,NA,"R/O 105-35 64 ROAD"
"Aggressive Driving/Road Rage",2013-06-04,"0","0","0","0","1","1","1","1","AMSTERDAM AVENUE","WEST 97 STREET","8:15","58683","SPORT UTILITY / STATION WAGON","MANHATTAN","40.7947356","Point","-73.9698722","10025","Unspecified","PASSENGER VEHICLE",NA,NA,NA,NA,NA,NA,NA
"Physical Disability",2013-06-02,"0","1","0","0","0","0","0","1","EAST 108 STREET","PARK AVENUE","19:45","56576","PASSENGER VEHICLE","MANHATTAN","40.7942333","Point","-73.9469462","10029","Unspecified","BICYCLE",NA,NA,NA,NA,NA,NA,NA
"Unspecified",2013-05-31,"0","0","0","1","0","0","0","1","255 STREET","CRAFT AVENUE","19:39","223884","MOTORCYCLE","QUEENS","40.650285","Point","-73.7349679","11422","Unspecified","SPORT UTILITY / STATION WAGON",NA,NA,NA,NA,NA,NA,NA
"Following Too Closely",2014-05-13,"0","0","0","1","0","0","0","1","NOSTRAND AVENUE","QUENTIN ROAD","19:26","334520","PASSENGER VEHICLE",NA,NA,NA,NA,NA,NA,NA,NA,NA,NA,NA,NA,NA,NA
"Unspecified",2013-05-26,"0","0","0","0","0","1","0","1",NA,NA,"0:01","2946547","PASSENGER VEHICLE",NA,"40.5955332","Point","-73.9988553",NA,"Unspecified","PASSENGER VEHICLE",NA,NA,NA,NA,NA,NA,NA
"Unspecified",2013-05-26,"0","0","0","0","0","1","0","1","EAST 176 STREET","WEBSTER AVENUE","5:06","93466","PASSENGER VEHICLE","BRONX","40.8468635","Point","-73.9014132","10457",NA,NA,NA,NA,NA,NA,NA,NA,NA
"Failure to Yield Right-of-Way",2014-05-05,"0","0","0","0","0","1","0","1","AVENUE O","OCEAN PARKWAY","11:32","330385","PASSENGER VEHICLE","BROOKLYN","40.6119531","Point","-73.9681646","11230",NA,NA,NA,NA,NA,NA,NA,NA,NA
"Unspecified",2013-05-19,"0","1","0","0","0","0","0","1","WASHINGTON AVENUE","EASTERN PARKWAY","1:13","174141","TAXI","BROOKLYN","40.671645","Point","-73.9625737","11238","Unspecified","BICYCLE",NA,NA,NA,NA,NA,NA,NA
"Following Too Closely",2013-05-17,"0","0","0","0","2","1","2","1","EAST 172 STREET","GRAND CONCOURSE","15:31","86954","SPORT UTILITY / STATION WAGON","BRONX","40.8409303","Point","-73.912698","10452","Unspecified","PASSENGER VEHICLE",NA,NA,NA,NA,NA,NA,NA
"Traffic Control Disregarded",2013-05-16,"0","0","0","0","0","1","0","1","88 STREET","ATLANTIC AVENUE","19:23","206156","PASSENGER VEHICLE","QUEENS","40.6866849","Point","-73.8539966","11421",NA,NA,NA,NA,NA,NA,NA,NA,NA
"Unspecified",2013-05-14,"0","0","0","1","0","0","0","1","31 DRIVE","VERNON BOULEVARD","21:58","276000","MOTORCYCLE","QUEENS","40.7686302","Point","-73.935822","11106",NA,NA,NA,NA,NA,NA,NA,NA,NA
"Unspecified",2013-05-12,"0","0","0","0","0","1","0","1","ROOSEVELT AVENUE","90 STREET","13:40","282045","PASSENGER VEHICLE","QUEENS","40.7484162","Point","-73.8764794","11372",NA,NA,NA,NA,NA,NA,NA,NA,NA
"Unspecified",2013-05-10,"0","0","0","1","0","0","0","1","BERRIMAN STREET","LIBERTY AVENUE","19:47","167019","MOTORCYCLE","BROOKLYN","40.6767657","Point","-73.8805058","11208","Unspecified","SPORT UTILITY / STATION WAGON",NA,NA,NA,NA,NA,NA,NA
"Unspecified",2013-05-07,"0","0","0","1","0","0","0","1",NA,NA,"23:38","3097159","MOTORCYCLE",NA,"40.6649967","Point","-73.8022829",NA,NA,NA,NA,NA,NA,NA,NA,NA,NA
"Following Too Closely",2013-05-06,"0","0","0","1","0","0","0","1","WEST TREMONT AVENUE","UNIVERSITY AVENUE","11:40","93367","SPORT UTILITY / STATION WAGON","BRONX","40.8504784","Point","-73.9154253","10453","Unspecified","OTHER","Unspecified","VAN","Unspecified","Unspecified","OTHER","SPORT UTILITY / STATION WAGON",NA
"Driver Inattention/Distraction",2012-08-14,"0","0","0","1","0","0","0","1","WEST 170 STREET","GRANT HIGHWAY","14:58","85431","MOTORCYCLE",NA,NA,NA,NA,NA,NA,NA,NA,NA,NA,NA,NA,NA,NA
"Physical Disability",2013-07-27,"0","0","0","1","0","0","0","1",NA,NA,"4:15","2913376","LARGE COM VEH(6 OR MORE TIRES)",NA,"40.8792309","Point","-73.8176945",NA,"Unspecified","PASSENGER VEHICLE",NA,NA,NA,NA,NA,NA,NA
"Unspecified",2013-07-27,"0","0","0","0","0","1","0","1","VAN WYCK EXPRESSWAY","87 AVENUE","5:05","236395","PASSENGER VEHICLE","QUEENS","40.7056666","Point","-73.8184645","11418",NA,NA,NA,NA,NA,NA,NA,NA,NA
"Other Electronic Device",2013-05-01,"0","0","0","0","0","1","0","1","HILLSIDE AVENUE","168 PLACE","20:30","235642","PASSENGER VEHICLE","QUEENS","40.7103517","Point","-73.7938951","11432","Other Vehicular","SPORT UTILITY / STATION WAGON","Other Vehicular","PASSENGER VEHICLE","Unspecified",NA,"SPORT UTILITY / STATION WAGON",NA,NA
"Unspecified",2013-04-30,"0","0","0","0","0","1","0","1","SAINT NICHOLAS AVENUE","WEST 116 STREET","17:27","64244","SPORT UTILITY / STATION WAGON","MANHATTAN","40.8032165","Point","-73.9525305","10026","Unspecified","PASSENGER VEHICLE",NA,NA,NA,NA,NA,NA,NA
"Traffic Control Disregarded",2014-03-09,"0","0","2","1","0","0","2","1","GREEN STREET","MANHATTAN AVENUE","15:42","201027","MOTORCYCLE","BROOKLYN","40.7337398","Point","-73.9548424","11222","Unspecified","PASSENGER VEHICLE",NA,NA,NA,NA,NA,NA,NA
"Unspecified",2013-04-24,"0","0","0","0","0","1","0","1",NA,NA,"22:56","2864594","SPORT UTILITY / STATION WAGON",NA,"40.812804","Point","-73.9344344",NA,NA,NA,NA,NA,NA,NA,NA,NA,NA
"Fatigued/Drowsy",2013-04-23,"0","0","0","0","2","1","2","1",NA,NA,"11:51","257041","PASSENGER VEHICLE","QUEENS","40.758973","Point","-73.845074","11368","Unspecified","PASSENGER VEHICLE","Unspecified","PASSENGER VEHICLE","Unspecified",NA,"SPORT UTILITY / STATION WAGON",NA,"35-01 126 STREET"
"Failure to Yield Right-of-Way",2013-04-22,"0","0","0","1","0","0","0","1","TILLARY STREET","FLATBUSH AVENUE EXTENSION","20:09","189454","UNKNOWN","BROOKLYN","40.6960346","Point","-73.9845292","11201","Unspecified","MOTORCYCLE",NA,NA,NA,NA,NA,NA,NA
"Unspecified",2012-08-22,"0","0","0","1","0","0","0","1","SARATOGA AVENUE","EASTERN PARKWAY","18:14","160389","MOTORCYCLE","BROOKLYN","40.6706879","Point","-73.9170232","11233","Unspecified","SPORT UTILITY / STATION WAGON",NA,NA,NA,NA,NA,NA,NA
"Unspecified",2013-04-17,"0","0","1","0","0","1","1","1","EAST 83 STREET","FOSTER AVENUE","15:51","145973","SPORT UTILITY / STATION WAGON","BROOKLYN","40.641947","Point","-73.9166193","11236",NA,NA,NA,NA,NA,NA,NA,NA,NA
"Unspecified",2013-04-16,"0","0","0","0","0","1","0","1","LEXINGTON AVENUE","EAST 78 STREET","6:26","48214","SPORT UTILITY / STATION WAGON","MANHATTAN","40.7742786","Point","-73.959393","10075",NA,NA,NA,NA,NA,NA,NA,NA,NA
"Driver Inattention/Distraction",2013-11-06,"0","0","0","0","0","1","0","1","JEWEL AVENUE","136 STREET","17:55","237395","SPORT UTILITY / STATION WAGON","QUEENS","40.7282837","Point","-73.8294","11367",NA,NA,NA,NA,NA,NA,NA,NA,NA
"Unspecified",2013-04-09,"0","0","0","1","0","0","0","1","CLARENDON ROAD","KINGS HIGHWAY","20:28","137569","SPORT UTILITY / STATION WAGON",NA,NA,NA,NA,NA,"Unspecified","MOTORCYCLE",NA,NA,NA,NA,NA,NA,NA
"Outside Car Distraction",2013-04-06,"0","0","0","1","0","0","0","1","8 AVENUE","WEST 134 STREET","4:33","67102","PASSENGER VEHICLE","MANHATTAN","40.8158288","Point","-73.9470338","10030","Unspecified","LIVERY VEHICLE",NA,NA,NA,NA,NA,NA,NA
"Traffic Control Disregarded",2013-04-04,"0","0","0","1","0","0","0","1","TILDEN AVENUE","KINGS HIGHWAY","4:17","137514","PASSENGER VEHICLE","BROOKLYN","40.6485398","Point","-73.9242472","11203",NA,NA,NA,NA,NA,NA,NA,NA,NA
"Unspecified",2013-04-03,"0","0","0","0","0","1","0","1","4 AVENUE","FLATBUSH AVENUE","12:47","177325","LARGE COM VEH(6 OR MORE TIRES)","BROOKLYN","40.6848568","Point","-73.9780417","11217",NA,NA,NA,NA,NA,NA,NA,NA,NA
"Unspecified",2013-04-01,"0","0","0","0","0","2","0","2","EAST 136 STREET","BRUCKNER BOULEVARD","4:23","74143","UNKNOWN",NA,NA,NA,NA,NA,NA,NA,NA,NA,NA,NA,NA,NA,NA
"Unspecified",2013-04-01,"0","0","0","0","0","1","0","1","86 STREET","4 AVENUE","6:17","142497","PASSENGER VEHICLE","BROOKLYN","40.6227987","Point","-74.0283499","11209",NA,NA,NA,NA,NA,NA,NA,NA,NA
"Driver Inattention/Distraction",2013-03-29,"0","0","0","0","0","1","0","1","TYSENS LANE","HYLAN BOULEVARD","17:40","297274","PASSENGER VEHICLE",NA,NA,NA,NA,NA,NA,NA,NA,NA,NA,NA,NA,NA,NA
"Unspecified",2013-03-26,"0","0","1","0","0","1","1","1",NA,NA,"11:54","3023625","MOTORCYCLE",NA,"40.6653987","Point","-73.8295113",NA,NA,NA,NA,NA,NA,NA,NA,NA,NA
"Driver Inattention/Distraction",2013-03-26,"0","0","0","0","0","1","0","1",NA,NA,"23:16","3045300","SPORT UTILITY / STATION WAGON",NA,"40.7353396","Point","-73.916885",NA,NA,NA,NA,NA,NA,NA,NA,NA,NA
"Physical Disability",2013-03-23,"0","0","0","0","2","1","2","1","VOORHIES AVENUE","OCEAN AVENUE","17:19","118561","PASSENGER VEHICLE","BROOKLYN","40.5862603","Point","-73.9489224","11235",NA,NA,NA,NA,NA,NA,NA,NA,NA
"Turning Improperly",2013-03-20,"0","0","4","1","0","0","4","1","EAST 187 STREET","WEBSTER AVENUE","16:04","93175","PASSENGER VEHICLE",NA,NA,NA,NA,NA,"Unspecified","PASSENGER VEHICLE","Unspecified","SPORT UTILITY / STATION WAGON","Unspecified","Unspecified","SPORT UTILITY / STATION WAGON","SPORT UTILITY / STATION WAGON",NA
"Unspecified",2013-03-18,"0","0","0","1","0","0","0","1","226 STREET","FRANCIS LEWIS BOULEVARD","19:16","222821","SPORT UTILITY / STATION WAGON","QUEENS","40.6869658","Point","-73.7383125","11411",NA,NA,NA,NA,NA,NA,NA,NA,NA
"Alcohol Involvement",2013-03-17,"0","0","0","1","0","0","0","1",NA,NA,"3:20","3033754","PASSENGER VEHICLE",NA,"40.7200909","Point","-73.7826919",NA,"Traffic Control Disregarded","TAXI",NA,NA,NA,NA,NA,NA,NA
"View Obstructed/Limited",2013-03-13,"0","0","0","0","0","1","0","1","COURT STREET","HAMILTON AVENUE","6:37","171461","OTHER",NA,NA,NA,NA,NA,NA,NA,NA,NA,NA,NA,NA,NA,NA
"Unspecified",2013-03-11,"0","0","0","0","0","1","0","1","TAYLOR AVENUE","SOUNDVIEW AVENUE","19:50","82534","SPORT UTILITY / STATION WAGON","BRONX","40.8175206","Point","-73.8620769","10473",NA,NA,NA,NA,NA,NA,NA,NA,NA
"Unspecified",2013-03-11,"0","0","0","1","0","0","0","1","EUCLID AVENUE","JAMAICA AVENUE","4:46","166274","PASSENGER VEHICLE",NA,NA,NA,NA,NA,"Unspecified","BUS",NA,NA,NA,NA,NA,NA,NA
"Unspecified",2013-03-10,"0","0","0","1","0","0","0","1","WEST 39 STREET","WEST SIDE HIGHWAY","6:20","18504","SPORT UTILITY / STATION WAGON","MANHATTAN","40.7601586","Point","-74.0026387","10018","Unspecified","UNKNOWN",NA,NA,NA,NA,NA,NA,NA
"Failure to Yield Right-of-Way",2013-03-09,"0","0","0","0","0","1","0","1","WEST 24 STREET","WEST SIDE HIGHWAY","2:55","18484","PASSENGER VEHICLE","MANHATTAN","40.7503074","Point","-74.0083661","10011",NA,NA,NA,NA,NA,NA,NA,NA,NA
"Unspecified",2013-03-08,"0","1","0","0","0","0","0","1","NEW UTRECHT AVENUE","59 STREET","4:35","131926","PASSENGER VEHICLE","BROOKLYN","40.6284454","Point","-73.9963362","11219","Unspecified","SPORT UTILITY / STATION WAGON","Unspecified","BICYCLE",NA,NA,NA,NA,NA
"Unspecified",2013-03-04,"0","0","0","0","0","1","0","1","LORIMER STREET","THROOP AVENUE","12:30","195453","SPORT UTILITY / STATION WAGON","BROOKLYN","40.7039152","Point","-73.9481686","11206",NA,NA,NA,NA,NA,NA,NA,NA,NA
"Traffic Control Disregarded",2013-03-03,"0","0","1","3","0","0","1","3","WILSON STREET","KENT AVENUE","0:05","195451","PASSENGER VEHICLE","BROOKLYN","40.7031587","Point","-73.9658741","11249","Unspecified","PASSENGER VEHICLE",NA,NA,NA,NA,NA,NA,NA
"Unspecified",2013-03-03,"0","0","1","1","0","0","1","1","KINGSTON AVENUE","ATLANTIC AVENUE","0:08","180631","PASSENGER VEHICLE","BROOKLYN","40.6780095","Point","-73.9413784","11213",NA,NA,NA,NA,NA,NA,NA,NA,NA
"Traffic Control Disregarded",2013-02-28,"0","0","0","1","0","0","0","1",NA,NA,"1:57","3056136","TAXI",NA,"40.789528","Point","-73.820422",NA,NA,NA,NA,NA,NA,NA,NA,NA,NA
"Alcohol Involvement",2013-02-27,"0","0","0","0","0","1","0","1","80 STREET","JAMAICA AVENUE","16:34","205571","PASSENGER VEHICLE",NA,NA,NA,NA,NA,NA,NA,NA,NA,NA,NA,NA,NA,NA
"Unspecified",2013-02-24,"0","0","1","0","0","1","1","1","EAST 27 STREET","3 AVENUE","1:48","23287","PASSENGER VEHICLE","MANHATTAN","40.7413501","Point","-73.9813106","10016","Unspecified","TAXI",NA,NA,NA,NA,NA,NA,NA
"Driver Inattention/Distraction",2013-12-09,"0","0","0","0","0","1","0","1","CLAY AVENUE","WEBSTER AVENUE","19:24","88062","VAN",NA,NA,NA,NA,NA,NA,NA,NA,NA,NA,NA,NA,NA,NA
"Unspecified",2013-02-23,"0","0","2","1","0","0","2","1","AVENUE J","REMSEN AVENUE","14:40","145753","PASSENGER VEHICLE","BROOKLYN","40.6385777","Point","-73.9041314","11236","Unspecified","PASSENGER VEHICLE",NA,NA,NA,NA,NA,NA,NA
"Unspecified",2013-02-23,"0","0","0","0","0","1","0","1",NA,NA,"1:00","2848714","PASSENGER VEHICLE",NA,"40.7624116","Point","-73.9544246",NA,NA,NA,NA,NA,NA,NA,NA,NA,NA
"Following Too Closely",2013-02-22,"0","0","0","0","0","1","0","1","ATLANTIC AVENUE","CLINTON STREET","17:40","189143","PICK-UP TRUCK","BROOKLYN","40.6902385","Point","-73.9943603","11201",NA,NA,NA,NA,NA,NA,NA,NA,NA
"Unspecified",2013-02-21,"0","0","2","0","0","1","2","1","10 STREET","40 AVENUE","0:45","275075","PASSENGER VEHICLE","QUEENS","40.7568762","Point","-73.9443519","11101",NA,NA,NA,NA,NA,NA,NA,NA,NA
"Unspecified",2013-02-21,"0","0","0","1","0","0","0","1","166 STREET","BAISLEY BOULEVARD","20:10","269638","PASSENGER VEHICLE","QUEENS","40.6796533","Point","-73.7772287","11434",NA,NA,NA,NA,NA,NA,NA,NA,NA
"Unspecified",2013-11-13,"0","0","0","0","0","1","0","1","HORACE HARDING EXPRESSWAY","188 STREET","20:25","237461","PASSENGER VEHICLE",NA,NA,NA,NA,NA,NA,NA,NA,NA,NA,NA,NA,NA,NA
"Unspecified",2013-02-15,"0","0","0","0","0","1","0","1","137 AVENUE","ROCKAWAY BOULEVARD","0:28","269607","UNKNOWN","QUEENS","40.6686085","Point","-73.781667","11434",NA,NA,NA,NA,NA,NA,NA,NA,NA
"Unspecified",2013-02-15,"0","0","0","0","0","1","0","1","EAST KINGSBRIDGE ROAD","GRAND CONCOURSE","18:53","110884","SPORT UTILITY / STATION WAGON","BRONX","40.8660702","Point","-73.8943816","10458",NA,NA,NA,NA,NA,NA,NA,NA,NA
"Unspecified",2013-02-13,"0","0","0","1","0","0","0","1","LINDEN BOULEVARD","ELDERTS LANE","14:55","166000","SPORT UTILITY / STATION WAGON","BROOKLYN","40.6694586","Point","-73.8628301","11208","Unspecified","MOTORCYCLE",NA,NA,NA,NA,NA,NA,NA
"Driver Inattention/Distraction",2015-02-19,"0","0","0","0","0","1","0","1","TWIN PINES DRIVE","PENNSYLVANIA AVENUE","17:58","3172129","PASSENGER VEHICLE","BROOKLYN","40.6484415","Point","-73.8824124","11239",NA,NA,NA,NA,NA,NA,NA,NA,NA
"Failure to Yield Right-of-Way",2013-02-07,"0","0","0","0","0","1","0","1","44 STREET","28 AVENUE","11:15","274930","SPORT UTILITY / STATION WAGON","QUEENS","40.7639802","Point","-73.9105065","11103",NA,NA,NA,NA,NA,NA,NA,NA,NA
"Failure to Yield Right-of-Way",2013-02-06,"0","0","3","1","3","0","6","1","BROADWAY","WEST 135 STREET","14:15","65444","VAN","MANHATTAN","40.8200975","Point","-73.9550764","10031","Unspecified","PASSENGER VEHICLE",NA,NA,NA,NA,NA,NA,NA
"Unspecified",2013-02-05,"0","0","0","0","0","1","0","1","9 AVENUE","WEST 41 STREET","10:11","18250","LARGE COM VEH(6 OR MORE TIRES)","MANHATTAN","40.7578281","Point","-73.9930696","10036",NA,NA,NA,NA,NA,NA,NA,NA,NA
"Driver Inattention/Distraction",2013-02-04,"0","0","0","1","0","0","0","1","97 STREET TRANSVERSE","EAST DRIVE","15:15","55426","MOTORCYCLE","MANHATTAN","40.7894755","Point","-73.9573939","10000",NA,NA,NA,NA,NA,NA,NA,NA,NA
"Failure to Yield Right-of-Way",2013-02-01,"0","0","0","0","1","1","1","1","MASON AVENUE","JEFFERSON AVENUE","19:32","296394","SPORT UTILITY / STATION WAGON","STATEN ISLAND","40.5783776","Point","-74.0940362","10306",NA,NA,NA,NA,NA,NA,NA,NA,NA
"Unspecified",2013-01-31,"0","0","0","0","0","1","0","1","WYCKOFF AVENUE","MYRTLE AVENUE","22:52","215286","PASSENGER VEHICLE","QUEENS","40.699531","Point","-73.9110367","11237",NA,NA,NA,NA,NA,NA,NA,NA,NA
"Passing or Lane Usage Improper",2013-01-30,"0","0","0","1","0","0","0","1","115 ROAD","222 STREET","12:50","222269","PASSENGER VEHICLE","QUEENS","40.6979494","Point","-73.7366502","11411",NA,NA,NA,NA,NA,NA,NA,NA,NA
"Passenger Distraction",2013-01-30,"0","0","0","0","0","1","0","1","BROADWAY","WEST 125 STREET","1:00","62619","TAXI","MANHATTAN","40.8156907","Point","-73.9582947","10027",NA,NA,NA,NA,NA,NA,NA,NA,NA
"Backing Unsafely",2013-01-29,"0","0","0","0","0","1","0","1","EAST FORDHAM ROAD","GRAND CONCOURSE","14:00","110757","PASSENGER VEHICLE","BRONX","40.8624442","Point","-73.8971422","10468",NA,NA,NA,NA,NA,NA,NA,NA,NA
"Unspecified",2013-01-29,"0","0","0","0","0","1","0","1","EAST 69 STREET","YORK AVENUE","19:50","47363","SPORT UTILITY / STATION WAGON","MANHATTAN","40.7649175","Point","-73.955157","10065",NA,NA,NA,NA,NA,NA,NA,NA,NA
"Unspecified",2013-01-29,"0","0","0","0","0","1","0","1","ROCKAWAY PARKWAY","LINDEN BOULEVARD","20:13","136972","SPORT UTILITY / STATION WAGON","BROOKLYN","40.6541334","Point","-73.9123297","11212",NA,NA,NA,NA,NA,NA,NA,NA,NA
"Unspecified",2013-01-26,"0","0","0","0","1","1","1","1","70 STREET","18 AVENUE","15:20","122858","SPORT UTILITY / STATION WAGON","BROOKLYN","40.6162611","Point","-73.9930807","11204",NA,NA,NA,NA,NA,NA,NA,NA,NA
"Unspecified",2013-01-22,"0","0","0","0","0","1","0","1","EAST 7 STREET","AVENUE O","14:49","131557","SPORT UTILITY / STATION WAGON","BROOKLYN","40.6121091","Point","-73.9667815","11230",NA,NA,NA,NA,NA,NA,NA,NA,NA
"Driver Inattention/Distraction",2013-01-20,"0","0","1","0","0","1","1","1","3 AVENUE","EAST 26 STREET","2:00","23074","SPORT UTILITY / STATION WAGON","MANHATTAN","40.7407326","Point","-73.9817618","10010","Unspecified","TAXI","Unspecified","SPORT UTILITY / STATION WAGON","Unspecified","Unspecified","TAXI","PASSENGER VEHICLE",NA
"Unspecified",2013-01-19,"0","0","0","1","0","0","0","1","75 STREET","SOUTH CONDUIT AVENUE","22:14","229627","PASSENGER VEHICLE","QUEENS","40.674021","Point","-73.8610722","11208",NA,NA,NA,NA,NA,NA,NA,NA,NA
"Unspecified",2013-01-18,"0","0","0","0","0","1","0","1","WEST 29 STREET","9 AVENUE","14:32","27940","SMALL COM VEH(4 TIRES)","MANHATTAN","40.7502418","Point","-73.998596","10001",NA,NA,NA,NA,NA,NA,NA,NA,NA
"Unspecified",2013-01-16,"0","0","0","0","0","1","0","1",NA,NA,"21:51","2957422","SPORT UTILITY / STATION WAGON",NA,"40.6356257","Point","-74.0170629",NA,NA,NA,NA,NA,NA,NA,NA,NA,NA
"Failure to Yield Right-of-Way",2013-11-02,"0","0","0","0","3","1","3","1","CLERMONT AVENUE","DE KALB AVENUE","12:48","193395","SPORT UTILITY / STATION WAGON","BROOKLYN","40.6895074","Point","-73.9701325","11205","Unspecified","PASSENGER VEHICLE","Unspecified","SPORT UTILITY / STATION WAGON","Unspecified",NA,"SPORT UTILITY / STATION WAGON",NA,NA
"Unspecified",2013-01-12,"0","0","0","0","0","1","0","1","COOPER AVENUE","WOODHAVEN BOULEVARD","6:45","215118","SPORT UTILITY / STATION WAGON","QUEENS","40.7133793","Point","-73.8596555","11374",NA,NA,NA,NA,NA,NA,NA,NA,NA
"Unspecified",2013-01-11,"0","0","0","0","0","1","0","1","UNION TURNPIKE","COMMONWEALTH BOULEVARD","18:38","222056","SPORT UTILITY / STATION WAGON","QUEENS","40.7413881","Point","-73.7248837","11426",NA,NA,NA,NA,NA,NA,NA,NA,NA
"Unspecified",2013-01-05,"0","0","1","0","0","1","1","1","MAPES AVENUE","EAST TREMONT AVENUE","13:02","100720","PASSENGER VEHICLE","BRONX","40.8438293","Point","-73.8879185","10460",NA,NA,NA,NA,NA,NA,NA,NA,NA
"Traffic Control Disregarded",2013-01-05,"0","0","3","3","0","0","3","3","EAST 5 STREET","AVENUE U","2:08","117875","PASSENGER VEHICLE","BROOKLYN","40.5976825","Point","-73.9668499","11223","Unspecified","PASSENGER VEHICLE","Unspecified","BUS","Unspecified","Unspecified","SPORT UTILITY / STATION WAGON","PASSENGER VEHICLE",NA
"Unspecified",2013-01-04,"0","0","0","0","0","1","0","1","PARK AVENUE SOUTH","EAST 23 STREET","12:26","22964","LARGE COM VEH(6 OR MORE TIRES)","MANHATTAN","40.7401843","Point","-73.986363","10010",NA,NA,NA,NA,NA,NA,NA,NA,NA
"Unspecified",2013-01-04,"0","0","0","0","0","1","0","1","EAST 233 STREET","PAULDING AVENUE","21:34","96432","UNKNOWN","BRONX","40.8906476","Point","-73.8487419","10466",NA,NA,NA,NA,NA,NA,NA,NA,NA
"Following Too Closely",2013-01-04,"0","0","0","1","0","0","0","1","EAST 153 STREET","ELTON AVENUE","7:46","73636","SPORT UTILITY / STATION WAGON","BRONX","40.818461","Point","-73.9148771","10455","Unspecified","SPORT UTILITY / STATION WAGON","Unspecified","PASSENGER VEHICLE",NA,NA,NA,NA,NA
"Unspecified",2013-01-02,"0","0","4","1","0","0","4","1",NA,NA,"4:00","3089792","SPORT UTILITY / STATION WAGON",NA,"40.7363231","Point","-73.8563019",NA,NA,NA,NA,NA,NA,NA,NA,NA,NA
"Alcohol Involvement",2012-12-31,"0","0","1","0","0","1","1","1","SNYDER AVENUE","EAST 32 STREET","18:14","136731","SPORT UTILITY / STATION WAGON","BROOKLYN","40.6490386","Point","-73.9474653","11226","Unspecified","PASSENGER VEHICLE","Unspecified","PASSENGER VEHICLE","Unspecified","Unspecified","PASSENGER VEHICLE","PASSENGER VEHICLE",NA
"Unspecified",2012-12-30,"0","0","3","1","0","0","3","1","ROCKAWAY BOULEVARD","BROOKVILLE BOULEVARD","5:10","221890","PASSENGER VEHICLE",NA,NA,NA,NA,NA,NA,NA,NA,NA,NA,NA,NA,NA,NA
"Unspecified",2012-12-29,"0","0","0","1","0","0","0","1","SHARPE AVENUE","RICHMOND TERRACE","2:37","286651","PASSENGER VEHICLE","STATEN ISLAND","40.6402245","Point","-74.1366666","10302",NA,NA,NA,NA,NA,NA,NA,NA,NA
"Traffic Control Disregarded",2012-12-29,"0","0","0","0","0","1","0","1","OLMSTEAD AVENUE","WESTCHESTER AVENUE","4:29","82058","UNKNOWN","BRONX","40.8338892","Point","-73.8546529","10462","Unspecified","SPORT UTILITY / STATION WAGON",NA,NA,NA,NA,NA,NA,NA
"Traffic Control Disregarded",2012-12-28,"0","0","0","1","0","0","0","1","HORACE HARDING EXPRESSWAY","PECK AVENUE","1:30","234616","SPORT UTILITY / STATION WAGON",NA,NA,NA,NA,NA,"Unspecified","LARGE COM VEH(6 OR MORE TIRES)",NA,NA,NA,NA,NA,NA,NA
"Physical Disability",2012-12-28,"0","0","1","1","0","0","1","1","EAST 14 STREET","AVENUE S","21:10","117798","PASSENGER VEHICLE","BROOKLYN","40.6033724","Point","-73.9582113","11229","Unspecified","SPORT UTILITY / STATION WAGON","Unspecified","PASSENGER VEHICLE","Unspecified",NA,"PASSENGER VEHICLE",NA,NA
"Unspecified",2012-12-28,"0","0","0","0","0","1","0","1","80 STREET","NORTHERN BOULEVARD","8:47","280998","LARGE COM VEH(6 OR MORE TIRES)","QUEENS","40.7553632","Point","-73.8872263","11372",NA,NA,NA,NA,NA,NA,NA,NA,NA
"Unspecified",2012-12-27,"0","0","0","0","0","1","0","1","MAIN STREET","FRANKLIN AVENUE","17:36","248289","PASSENGER VEHICLE","QUEENS","40.7542523","Point","-73.8278248","11355",NA,NA,NA,NA,NA,NA,NA,NA,NA
"Unspecified",2012-12-26,"0","0","0","0","0","1","0","1","LITTLE NECK PARKWAY","HILLSIDE AVENUE","17:55","221841","UNKNOWN","QUEENS","40.7361595","Point","-73.7137011","11004",NA,NA,NA,NA,NA,NA,NA,NA,NA
"Unspecified",2012-12-26,"0","0","0","0","0","1","0","1","147 STREET","111 AVENUE","18:30","269294","UNKNOWN","QUEENS","40.6878729","Point","-73.7974623","11435",NA,NA,NA,NA,NA,NA,NA,NA,NA
"Unspecified",2012-12-26,"0","0","0","0","0","1","0","1","WEST 59 STREET","7 AVENUE","20:27","39815","BUS","MANHATTAN","40.7668758","Point","-73.979076","10019",NA,NA,NA,NA,NA,NA,NA,NA,NA
"Following Too Closely",2012-12-24,"0","0","1","1","0","0","1","1","218 STREET","85 AVENUE","18:39","260716","PICK-UP TRUCK","QUEENS","40.7312494","Point","-73.7516764","11427",NA,NA,NA,NA,NA,NA,NA,NA,NA
"Unspecified",2012-08-11,"0","0","2","1","0","0","2","1","COSTER STREET","RANDALL AVENUE","12:18","76398","PASSENGER VEHICLE","BRONX","40.8120773","Point","-73.8868051","10474","Unspecified","PASSENGER VEHICLE",NA,NA,NA,NA,NA,NA,NA
"Unspecified",2014-02-09,"0","0","0","1","0","0","0","1","ROSEDALE AVENUE","WESTCHESTER AVENUE","15:29","84971","PASSENGER VEHICLE","BRONX","40.8310849","Point","-73.8690808","10472",NA,NA,NA,NA,NA,NA,NA,NA,NA
"Unspecified",2012-12-20,"0","0","0","0","0","1","0","1","COLUMBUS AVENUE","WEST 65 STREET","19:32","53252","TAXI","MANHATTAN","40.7729916","Point","-73.9820779","10023",NA,NA,NA,NA,NA,NA,NA,NA,NA
"Unspecified",2012-12-19,"0","0","0","1","0","0","0","1","ORINOCO PLACE","ERASTINA PLACE","16:32","286557","SPORT UTILITY / STATION WAGON","STATEN ISLAND","40.6360222","Point","-74.156053","10303",NA,NA,NA,NA,NA,NA,NA,NA,NA
"Unspecified",2012-12-19,"0","0","0","0","0","1","0","1","246 STREET","FRANCIS LEWIS BOULEVARD","3:50","221730","UNKNOWN","QUEENS","40.6643565","Point","-73.7345263","11422",NA,NA,NA,NA,NA,NA,NA,NA,NA
"Failure to Yield Right-of-Way",2012-12-18,"0","0","0","0","0","1","0","1","KINGS HIGHWAY","OCEAN PARKWAY","6:49","117693","BUS","BROOKLYN","40.6056754","Point","-73.9669612","11223",NA,NA,NA,NA,NA,NA,NA,NA,NA
"Unspecified",2012-12-17,"0","0","2","1","0","0","2","1",NA,NA,"1:50","3122012","PASSENGER VEHICLE",NA,"40.6142704","Point","-74.1566467",NA,"Unspecified","PASSENGER VEHICLE","Unspecified","PASSENGER VEHICLE",NA,NA,NA,NA,NA
"Alcohol Involvement",2012-12-17,"0","0","0","1","0","0","0","1","DALE AVENUE","AMBOY ROAD","5:15","295659","PASSENGER VEHICLE","STATEN ISLAND","40.5715006","Point","-74.121624","10306",NA,NA,NA,NA,NA,NA,NA,NA,NA
"Unspecified",2012-12-16,"0","0","0","0","0","1","0","1","AVENUE M","EAST 57 STREET","18:42","126826","PASSENGER VEHICLE","BROOKLYN","40.6217782","Point","-73.9203908","11234",NA,NA,NA,NA,NA,NA,NA,NA,NA
"Unspecified",2012-12-16,"0","0","1","2","0","0","1","2","SNYDER AVENUE","KINGS HIGHWAY","4:45","136573","SPORT UTILITY / STATION WAGON","BROOKLYN","40.6505183","Point","-73.9235855","11203","Unspecified","SPORT UTILITY / STATION WAGON",NA,NA,NA,NA,NA,NA,NA
"Unspecified",2012-12-15,"0","0","0","0","0","1","0","1","ATLANTIC AVENUE","FLATBUSH AVENUE","1:04","176700","SMALL COM VEH(4 TIRES)","BROOKLYN","40.6840525","Point","-73.9774579","11217",NA,NA,NA,NA,NA,NA,NA,NA,NA
"Alcohol Involvement",2012-12-15,"0","0","1","0","1","1","2","1",NA,NA,"4:24","3079263","PASSENGER VEHICLE",NA,"40.7609347","Point","-73.7311243",NA,NA,NA,NA,NA,NA,NA,NA,NA,NA
"Unspecified",2012-12-14,"0","0","0","0","0","1","0","1","WEST 73 STREET","COLUMBUS AVENUE","8:20","53218","LARGE COM VEH(6 OR MORE TIRES)","MANHATTAN","40.7780962","Point","-73.9782926","10023",NA,NA,NA,NA,NA,NA,NA,NA,NA
"Driver Inattention/Distraction",2012-12-13,"0","0","0","0","0","1","0","1","SAINT ANNS AVENUE","EAST 138 STREET","13:35","73535","LARGE COM VEH(6 OR MORE TIRES)","BRONX","40.8068225","Point","-73.9174784","10454",NA,NA,NA,NA,NA,NA,NA,NA,NA
"Driver Inattention/Distraction",2014-11-12,"0","0","0","0","0","1","0","1","WEST 119 STREET","8 AVENUE","16:35","2824498","VAN","MANHATTAN","40.8063543","Point","-73.9539551","10026",NA,NA,NA,NA,NA,NA,NA,NA,NA
"Unspecified",2012-08-09,"0","0","0","0","0","1","0","1","5 AVENUE","WEST 55 STREET","9:00","38108","SPORT UTILITY / STATION WAGON","MANHATTAN","40.7616682","Point","-73.9749156","10022",NA,NA,NA,NA,NA,NA,NA,NA,NA
"Driver Inattention/Distraction",2012-12-08,"0","0","4","0","3","1","7","1","WEST 5 STREET","QUENTIN ROAD","14:25","122529","SPORT UTILITY / STATION WAGON","BROOKLYN","40.6060431","Point","-73.9782909","11223","Unspecified","SPORT UTILITY / STATION WAGON","Unspecified","PASSENGER VEHICLE",NA,NA,NA,NA,NA
"Unspecified",2014-11-03,"0","0","0","1","0","0","0","1",NA,NA,"2:02","2950617","PASSENGER VEHICLE",NA,"40.6054518","Point","-73.8985502",NA,"Unspecified","PASSENGER VEHICLE","Unspecified","SPORT UTILITY / STATION WAGON",NA,NA,NA,NA,NA
"Unspecified",2012-08-08,"0","0","3","1","0","0","3","1","61 STREET","20 AVENUE","2:09","130180","LARGE COM VEH(6 OR MORE TIRES)","BROOKLYN","40.6187991","Point","-73.9834881","11204","Unspecified","SPORT UTILITY / STATION WAGON","Unspecified","PASSENGER VEHICLE","Unspecified",NA,"SPORT UTILITY / STATION WAGON",NA,NA
"Backing Unsafely",2014-10-24,"0","0","0","0","9","1","9","1","CLAFLIN AVENUE","EAMES PLACE","14:46","2813084","SPORT UTILITY / STATION WAGON","BRONX","40.869274","Point","-73.9013438","10468","Backing Unsafely",NA,NA,NA,NA,NA,NA,NA,NA
"Unspecified",2012-11-30,"0","0","0","1","0","0","0","1","13 AVENUE","65 STREET","19:06","141706","SPORT UTILITY / STATION WAGON","BROOKLYN","40.6259834","Point","-74.0015202","11219","Unspecified","MOTORCYCLE",NA,NA,NA,NA,NA,NA,NA
"Unspecified",2012-11-26,"0","0","0","0","0","1","0","1",NA,NA,"8:12","1303","SPORT UTILITY / STATION WAGON",NA,NA,NA,NA,NA,"Unspecified","PASSENGER VEHICLE",NA,NA,NA,NA,NA,NA,"PARKING GARAGE @ 21 BARCLAY STREET"
"Alcohol Involvement",2012-11-25,"0","0","0","0","1","1","1","1","KINGS HIGHWAY","BEDFORD AVENUE","18:51","148544","OTHER","BROOKLYN","40.6130524","Point","-73.949118","11229","Unspecified","SPORT UTILITY / STATION WAGON","Unspecified","SPORT UTILITY / STATION WAGON","Unspecified","Unspecified","PASSENGER VEHICLE","SPORT UTILITY / STATION WAGON",NA
"Unspecified",2012-11-22,"0","0","0","1","0","0","0","1",NA,NA,"3:19","3089708","PASSENGER VEHICLE",NA,"40.7179035","Point","-73.8320112",NA,"Unspecified","PASSENGER VEHICLE",NA,NA,NA,NA,NA,NA,NA
"Unspecified",2014-10-08,"0","1","0","0","0","0","0","1",NA,NA,"21:30","1036503","BUS",NA,NA,NA,NA,NA,"Unspecified","BICYCLE",NA,NA,NA,NA,NA,NA,"ROOSEVELT ISLAND"
"Unspecified",2012-11-20,"0","0","0","0","0","1","0","1","EAST 17 STREET","UNION SQUARE WEST","11:14","22666","SMALL COM VEH(4 TIRES)","MANHATTAN","40.7371325","Point","-73.9903293","10003",NA,NA,NA,NA,NA,NA,NA,NA,NA
"Failure to Yield Right-of-Way",2012-11-20,"0","0","2","1","0","0","2","1","158 AVENUE","84 STREET","11:38","229113","OTHER","QUEENS","40.6596447","Point","-73.8486818","11414","Unspecified","SPORT UTILITY / STATION WAGON","Unspecified","OTHER",NA,NA,NA,NA,NA
"Unspecified",2014-05-12,"0","0","0","0","0","1","0","1","3 AVENUE","EAST 125 STREET","16:35","333839","OTHER","MANHATTAN","40.8036997","Point","-73.9358171","10035",NA,NA,NA,NA,NA,NA,NA,NA,NA
"Physical Disability",2012-11-18,"0","0","1","1","0","0","1","1","115 AVENUE","227 STREET","2:47","221299","PASSENGER VEHICLE","QUEENS","40.6983571","Point","-73.731358","11411","Alcohol Involvement","PASSENGER VEHICLE","Traffic Control Disregarded","PASSENGER VEHICLE","Unspecified",NA,"PASSENGER VEHICLE",NA,NA
"Driver Inattention/Distraction",2012-11-17,"0","0","0","0","0","1","0","1","NOSTRAND AVENUE","FOSTER AVENUE","3:40","136277","UNKNOWN","BROOKLYN","40.638606","Point","-73.9482662","11210","Unspecified","PASSENGER VEHICLE",NA,NA,NA,NA,NA,NA,NA
"Unspecified",2013-12-04,"0","0","0","1","0","0","0","1","FOREST AVENUE","GULF AVENUE","1:54","292185","PASSENGER VEHICLE",NA,NA,NA,NA,NA,NA,NA,NA,NA,NA,NA,NA,NA,NA
"Unspecified",2012-11-15,"0","0","0","0","1","1","1","1","KEAP STREET","BORINQUEN PLACE","5:27","194770","PASSENGER VEHICLE","BROOKLYN","40.7107162","Point","-73.9535811","11211","Unspecified","PASSENGER VEHICLE",NA,NA,NA,NA,NA,NA,NA
"Physical Disability",2012-11-14,"0","0","1","1","0","0","1","1","RALPH AVENUE","ATLANTIC AVENUE","5:48","160830","PASSENGER VEHICLE","BROOKLYN","40.6769384","Point","-73.9218247","11233","Failure to Yield Right-of-Way","PASSENGER VEHICLE",NA,NA,NA,NA,NA,NA,NA
"Traffic Control Disregarded",2014-09-23,"0","0","1","1","0","0","1","1","JEROME AVENUE","EAST 233 STREET","7:09","1029736","PASSENGER VEHICLE","BRONX","40.8952213","Point","-73.8800407","10470","Unspecified","PASSENGER VEHICLE","Unspecified","OTHER",NA,NA,NA,NA,NA
"Passenger Distraction",2012-11-10,"0","0","0","0","0","1","0","1","CHRISTOPHER LANE","VICTORY BOULEVARD","18:30","295045","PASSENGER VEHICLE","STATEN ISLAND","40.6084351","Point","-74.1554375","10314",NA,NA,NA,NA,NA,NA,NA,NA,NA
"Unspecified",2012-11-06,"0","0","0","0","0","1","0","1","CENTRE STREET","CANAL STREET","13:24","6184","LARGE COM VEH(6 OR MORE TIRES)","MANHATTAN","40.7180184","Point","-73.9999567","10013",NA,NA,NA,NA,NA,NA,NA,NA,NA
"Unspecified",2012-11-02,"0","0","0","0","0","1","0","1","UNION STREET","41 AVENUE","23:20","247482","UNKNOWN","QUEENS","40.75933","Point","-73.8259671","11355",NA,NA,NA,NA,NA,NA,NA,NA,NA
"Driver Inattention/Distraction",2012-10-26,"0","0","0","0","0","1","0","1","187 STREET","UNION TURNPIKE","14:30","234088","PASSENGER VEHICLE","QUEENS","40.7289202","Point","-73.7820575","11366",NA,NA,NA,NA,NA,NA,NA,NA,NA
"View Obstructed/Limited",2012-10-26,"0","0","0","0","0","1","0","1","55 STREET","4 AVENUE","6:12","156622","SPORT UTILITY / STATION WAGON","BROOKLYN","40.6436697","Point","-74.015491","11220",NA,NA,NA,NA,NA,NA,NA,NA,NA
"Unspecified",2012-10-22,"0","0","0","0","0","1","0","1","HEGEMAN AVENUE","LINDEN BOULEVARD","0:19","160697","SPORT UTILITY / STATION WAGON","BROOKLYN","40.6572088","Point","-73.9002951","11212",NA,NA,NA,NA,NA,NA,NA,NA,NA
"Physical Disability",2014-08-15,"0","1","0","0","0","0","0","1","QUENTIN ROAD","MC DONALD AVENUE","9:45","1008944","SPORT UTILITY / STATION WAGON","BROOKLYN","40.6066705","Point","-73.9725897","11223","Unspecified","BICYCLE",NA,NA,NA,NA,NA,NA,NA
"Unspecified",2012-08-03,"0","0","0","0","0","1","0","1","SCHMIDTS LANE","MANOR ROAD","16:00","293579","PASSENGER VEHICLE","STATEN ISLAND","40.6088332","Point","-74.1211698","10314",NA,NA,NA,NA,NA,NA,NA,NA,NA
"Unspecified",2012-07-30,"0","1","0","0","0","0","0","1","PARK AVENUE","EAST 108 STREET","19:50","55636","PASSENGER VEHICLE","MANHATTAN","40.7942333","Point","-73.9469462","10029","Unspecified","BICYCLE",NA,NA,NA,NA,NA,NA,NA
"Traffic Control Disregarded",2012-07-30,"0","0","0","1","0","0","0","1","WEST 152 STREET","SAINT NICHOLAS PLACE","21:50","65072","MOTORCYCLE","MANHATTAN","40.8284464","Point","-73.9415422","10031","Unspecified","SPORT UTILITY / STATION WAGON","Unspecified","PASSENGER VEHICLE",NA,NA,NA,NA,NA
"Passenger Distraction",2012-07-22,"0","0","0","0","0","1","0","1","LIVONIA AVENUE","MOTHER GASTON BOULEVARD","20:48","160223","PASSENGER VEHICLE","BROOKLYN","40.6631059","Point","-73.9051739","11212",NA,NA,NA,NA,NA,NA,NA,NA,NA
"Traffic Control Disregarded",2012-07-22,"0","0","3","5","0","0","3","5","VAN WYCK EXPRESSWAY","94 AVENUE","3:20","208863","SPORT UTILITY / STATION WAGON","QUEENS","40.6972045","Point","-73.8133341","11418",NA,NA,NA,NA,NA,NA,NA,NA,NA
"Traffic Control Disregarded",2012-07-21,"0","0","0","1","0","0","0","1","VICTORIA ROAD","MERRICK BOULEVARD","20:08","268241","MOTORCYCLE","QUEENS","40.6852789","Point","-73.7723999","11434","Unspecified","SPORT UTILITY / STATION WAGON",NA,NA,NA,NA,NA,NA,NA
"Unspecified",2012-07-16,"0","0","0","1","0","0","0","1","AVENUE P","EAST 8 STREET","10:35","130032","MOTORCYCLE","BROOKLYN","40.609674","Point","-73.9652232","11223","Unspecified","PASSENGER VEHICLE",NA,NA,NA,NA,NA,NA,NA
"Traffic Control Disregarded",2012-07-16,"0","0","2","1","0","0","2","1","EAST GUN HILL ROAD","WEBSTER AVENUE","23:17","95006","PASSENGER VEHICLE","BRONX","40.8786453","Point","-73.871598","10467","Unspecified","SPORT UTILITY / STATION WAGON",NA,NA,NA,NA,NA,NA,NA
"Alcohol Involvement",2012-07-14,"0","0","1","0","1","1","2","1","EAST 170 STREET","GRAND CONCOURSE","1:21","85246","SPORT UTILITY / STATION WAGON","BRONX","40.8387216","Point","-73.9137706","10456","Unspecified","SPORT UTILITY / STATION WAGON",NA,NA,NA,NA,NA,NA,NA
"Unspecified",2012-07-08,"0","0","0","0","0","1","0","1","CONWAY STREET","BUSHWICK AVENUE","21:54","163460","PASSENGER VEHICLE","BROOKLYN","40.6806649","Point","-73.9026216","11207",NA,NA,NA,NA,NA,NA,NA,NA,NA
"Driver Inattention/Distraction",2012-07-05,"0","0","0","0","0","1","0","1","STERLING STREET","BEDFORD AVENUE","3:30","152388","PASSENGER VEHICLE","BROOKLYN","40.6627363","Point","-73.9571216","11225","Unspecified","PASSENGER VEHICLE",NA,NA,NA,NA,NA,NA,NA
"Traffic Control Disregarded",2012-07-03,"0","0","0","1","0","0","0","1","88 STREET","ASTORIA BOULEVARD","20:55","279655","PASSENGER VEHICLE","QUEENS","40.7640141","Point","-73.8812156","11369","Unspecified","MOTORCYCLE",NA,NA,NA,NA,NA,NA,NA
"Traffic Control Disregarded",2013-10-20,"0","0","2","1","0","0","2","1","MYRTLE AVENUE","TOMPKINS AVENUE","22:15","181929","PASSENGER VEHICLE","BROOKLYN","40.6957047","Point","-73.9463647","11206","Unspecified","VAN","Unspecified","PASSENGER VEHICLE","Unspecified","Unspecified","SPORT UTILITY / STATION WAGON","PASSENGER VEHICLE",NA
"Traffic Control Disregarded",2013-09-28,"0","0","0","0","0","1","0","1","58 STREET","BROADWAY","23:05","243609","PASSENGER VEHICLE","QUEENS","40.7518401","Point","-73.9035714","11377",NA,NA,NA,NA,NA,NA,NA,NA,NA
"Unspecified",2014-06-20,"0","0","0","1","0","0","0","1","BRUCKNER BOULEVARD","EAST TREMONT AVENUE","22:47","355252",NA,NA,NA,NA,NA,NA,NA,NA,NA,NA,NA,NA,NA,NA,NA
"Unspecified",2014-06-13,"0","0","0","1","0","0","0","1","48 AVENUE","FRANCIS LEWIS BOULEVARD","14:40","351063",NA,"QUEENS","40.7518951","Point","-73.7798059","11365",NA,NA,NA,NA,NA,NA,NA,NA,NA
"Unspecified",2013-06-03,"0","0","0","0","0","1","0","1","1 AVENUE","EAST 54 STREET","18:15","35240","VAN","MANHATTAN","40.7563818","Point","-73.9643237","10022",NA,NA,NA,NA,NA,NA,NA,NA,NA
"Unspecified",2013-05-27,"0","1","0","0","0","0","0","1","BAY 26 STREET","BENSON AVENUE","12:04","123681","SPORT UTILITY / STATION WAGON","BROOKLYN","40.6020295","Point","-73.9985631","11214","Unspecified","BICYCLE",NA,NA,NA,NA,NA,NA,NA
"Unspecified",2013-04-15,"0","0","0","0","0","1","0","1","109 AVENUE","208 STREET","23:52","223193","PASSENGER VEHICLE","QUEENS","40.7092547","Point","-73.7500306","11429",NA,NA,NA,NA,NA,NA,NA,NA,NA
"Unspecified",2015-03-17,"0","0","0","0","0","1","0","1","80 STREET","ASTORIA BOULEVARD","14:49","3187899","PASSENGER VEHICLE","QUEENS","40.7653202","Point","-73.8890397","11370",NA,NA,NA,NA,NA,NA,NA,NA,NA
"Backing Unsafely",2014-02-03,"0","0","0","0","0","1","0","1","BRIGHTON BEACH AVENUE","OCEANA TERRACE","11:54","116103","LARGE COM VEH(6 OR MORE TIRES)","BROOKLYN","40.578274","Point","-73.9582594","11235",NA,NA,NA,NA,NA,NA,NA,NA,NA
"Unspecified",2013-11-27,"0","1","0","0","0","0","0","1","BORDEN AVENUE","MAURICE AVENUE","16:52","218315","LARGE COM VEH(6 OR MORE TIRES)",NA,NA,NA,NA,NA,"Unspecified","BICYCLE",NA,NA,NA,NA,NA,NA,NA
"Unspecified",2013-11-27,"0","0","2","0","0","1","2","1","EAST 16 STREET","AVENUE C","17:13","25414","LARGE COM VEH(6 OR MORE TIRES)","MANHATTAN","40.7297989","Point","-73.9748013","10009",NA,NA,NA,NA,NA,NA,NA,NA,NA
"Unspecified",2013-03-11,"0","0","0","0","4","1","4","1","30 STREET","THOMSON AVENUE","10:57","241411","SPORT UTILITY / STATION WAGON","QUEENS","40.7451772","Point","-73.9372593","11101",NA,NA,NA,NA,NA,NA,NA,NA,NA
"Failure to Yield Right-of-Way",2013-02-28,"0","0","0","0","0","1","0","1","1 AVENUE","EAST 117 STREET","7:54","60586","OTHER","MANHATTAN","40.7966809","Point","-73.9349137","10035",NA,NA,NA,NA,NA,NA,NA,NA,NA
"Following Too Closely",2013-02-25,"0","0","0","1","0","0","0","1","75 AVENUE","167 STREET","18:51","235095","PASSENGER VEHICLE","QUEENS","40.727411","Point","-73.8020541","11366","Unspecified","SPORT UTILITY / STATION WAGON",NA,NA,NA,NA,NA,NA,NA
"Unspecified",2013-02-13,"0","0","0","0","0","1","0","1","JAMAICA AVENUE","WOODHAVEN BOULEVARD","20:58","205471","PASSENGER VEHICLE","QUEENS","40.6936625","Point","-73.8521639","11421",NA,NA,NA,NA,NA,NA,NA,NA,NA
"Unspecified",2013-01-30,"0","0","0","0","0","1","0","1","EAST 95 STREET","LINDEN BOULEVARD","18:30","136979","SPORT UTILITY / STATION WAGON","BROOKLYN","40.6542235","Point","-73.9153065","11212",NA,NA,NA,NA,NA,NA,NA,NA,NA
"Failure to Yield Right-of-Way",2013-01-29,"0","0","0","0","0","1","0","1","NORTHERN BOULEVARD","PARSONS BOULEVARD","13:10","248775","PASSENGER VEHICLE","QUEENS","40.764651","Point","-73.823484","11354",NA,NA,NA,NA,NA,NA,NA,NA,NA
"Unspecified",2013-01-23,"0","0","0","0","0","1","0","1","265 STREET","UNION TURNPIKE","18:08","222196","SPORT UTILITY / STATION WAGON","QUEENS","40.7491907","Point","-73.7078596","11040",NA,NA,NA,NA,NA,NA,NA,NA,NA
"Unspecified",2013-01-17,"0","0","0","0","0","1","0","1","MADISON STREET","MYRTLE AVENUE","18:50","215162","PASSENGER VEHICLE","QUEENS","40.6998829","Point","-73.9082989","11385",NA,NA,NA,NA,NA,NA,NA,NA,NA
"Unspecified",2013-01-07,"0","0","0","0","0","1","0","1","57 ROAD","MAIN STREET","6:59","248436","PASSENGER VEHICLE","QUEENS","40.7460428","Point","-73.8260812","11355",NA,NA,NA,NA,NA,NA,NA,NA,NA
"Prescription Medication",2013-01-06,"0","0","0","1","0","0","0","1","EAST 38 STREET","CLARKSON AVENUE","21:12","153400","PASSENGER VEHICLE","BROOKLYN","40.6558844","Point","-73.9423998","11203","Lost Consciousness","MOTORCYCLE",NA,NA,NA,NA,NA,NA,NA
"Unspecified",2013-11-26,"0","0","0","0","0","1","0","1","WOLCOTT AVENUE","DRUMGOOLE ROAD EAST","18:00","292118","PASSENGER VEHICLE",NA,NA,NA,NA,NA,NA,NA,NA,NA,NA,NA,NA,NA,NA
"Driver Inexperience",2012-10-27,"0","0","5","1","0","0","5","1","TUDOR PLACE","WALTON AVENUE","18:30","85858","PASSENGER VEHICLE","BRONX","40.8343235","Point","-73.9199088","10452","Unspecified","MOTORCYCLE","Unspecified","SPORT UTILITY / STATION WAGON","Unspecified",NA,"PASSENGER VEHICLE",NA,NA
"Unspecified",2012-10-25,"0","0","0","1","0","0","0","1","KINGSLAND AVENUE","BOSTON ROAD","23:17","95837","PASSENGER VEHICLE","BRONX","40.8778822","Point","-73.8447933","10469",NA,NA,NA,NA,NA,NA,NA,NA,NA
"Unspecified",2012-10-22,"0","0","0","0","0","1","0","1","EAST 84 STREET","2 AVENUE","1:21","46210","PASSENGER VEHICLE","MANHATTAN","40.7765625","Point","-73.9527048","10028",NA,NA,NA,NA,NA,NA,NA,NA,NA
"Prescription Medication",2012-10-01,"0","1","0","0","0","0","0","1","STEWART AVENUE","METROPOLITAN AVENUE","5:15","194426","UNKNOWN","BROOKLYN","40.7142083","Point","-73.9281658","11237","Passenger Distraction","BICYCLE",NA,NA,NA,NA,NA,NA,NA
"Failure to Yield Right-of-Way",2012-09-28,"0","0","0","1","0","0","0","1","88 STREET","BATTERY AVENUE","12:36","141302","PASSENGER VEHICLE","BROOKLYN","40.6180871","Point","-74.0227324","11228","Unspecified","PASSENGER VEHICLE","Unspecified","PASSENGER VEHICLE",NA,NA,NA,NA,NA
"Traffic Control Disregarded",2012-09-25,"0","0","0","0","0","1","0","1","EAST 167 STREET","TELLER AVENUE","20:00","85662","MOTORCYCLE","BRONX","40.8309366","Point","-73.9123967","10456",NA,NA,NA,NA,NA,NA,NA,NA,NA
"Pavement Defective",2014-08-30,"0","0","0","1","0","0","0","1",NA,NA,"22:19","3057379","MOTORCYCLE",NA,"40.7904014","Point","-73.82344",NA,NA,NA,NA,NA,NA,NA,NA,NA,NA
"Passenger Distraction",2014-08-28,"0","0","0","0","0","1","0","1",NA,NA,"8:40","1015739","SPORT UTILITY / STATION WAGON",NA,NA,NA,NA,NA,NA,NA,NA,NA,NA,NA,NA,NA,"PARKING LOT 86-18 BROADWAY"
"Driver Inattention/Distraction",2012-09-17,"0","0","2","1","0","0","2","1","EAST 8 STREET","AVENUE I","20:31","130513","PASSENGER VEHICLE","BROOKLYN","40.6268409","Point","-73.9684781","11230","Driver Inattention/Distraction","PASSENGER VEHICLE",NA,NA,NA,NA,NA,NA,NA
"Failure to Yield Right-of-Way",2012-09-16,"0","0","0","1","0","0","0","1","38 AVENUE","21 STREET","23:00","273502","SPORT UTILITY / STATION WAGON","QUEENS","40.7574856","Point","-73.939085","11101","Unspecified","MOTORCYCLE",NA,NA,NA,NA,NA,NA,NA
"Traffic Control Disregarded",2012-09-13,"0","0","0","1","0","0","0","1",NA,NA,"6:05","2934060","PASSENGER VEHICLE",NA,NA,NA,NA,NA,"Unspecified","LARGE COM VEH(6 OR MORE TIRES)","Unspecified","LARGE COM VEH(6 OR MORE TIRES)",NA,NA,NA,NA,NA
"Driver Inattention/Distraction",2012-09-02,"0","0","0","1","0","0","0","1","LINDEN BOULEVARD","ROCKAWAY BOULEVARD","0:27","228451","PASSENGER VEHICLE",NA,NA,NA,NA,NA,"Unspecified","MOTORCYCLE",NA,NA,NA,NA,NA,NA,NA
"Other Vehicular",2012-08-31,"0","0","0","1","0","0","0","1","BRONX BOULEVARD","NEREID AVENUE","14:40","95407","PASSENGER VEHICLE","BRONX","40.8998154","Point","-73.8578041","10466","Prescription Medication","PASSENGER VEHICLE",NA,NA,NA,NA,NA,NA,NA
"Unspecified",2012-08-30,"0","0","0","1","0","0","0","1",NA,NA,"6:57","2918725","SPORT UTILITY / STATION WAGON",NA,NA,NA,NA,NA,NA,NA,NA,NA,NA,NA,NA,NA,NA
"Traffic Control Disregarded",2012-08-27,"0","0","2","2","0","0","2","2","RICHMOND AVENUE","HYLAN BOULEVARD","19:05","293916","SPORT UTILITY / STATION WAGON","STATEN ISLAND","40.5342669","Point","-74.1539735","10312","Unspecified","SPORT UTILITY / STATION WAGON","Unspecified","PASSENGER VEHICLE",NA,NA,NA,NA,NA
"Failure to Yield Right-of-Way",2012-08-27,"0","0","0","0","0","1","0","1","WEST HOUSTON STREET","AVENUE OF THE AMERICAS","8:50","9655","LARGE COM VEH(6 OR MORE TIRES)",NA,NA,NA,NA,NA,NA,NA,NA,NA,NA,NA,NA,NA,NA
"Unspecified",2012-08-23,"0","0","0","0","0","1","0","1","ROCKAWAY BOULEVARD","BREWER BOULEVARD","22:00","220124","UNKNOWN","QUEENS","40.6561603","Point","-73.7673526","11434",NA,NA,NA,NA,NA,NA,NA,NA,NA
"Unspecified",2012-08-21,"0","0","0","0","0","1","0","1","EAST 233 STREET","BARNES AVENUE","4:43","95290","UNKNOWN","BRONX","40.8924774","Point","-73.8544923","10466",NA,NA,NA,NA,NA,NA,NA,NA,NA
"Unspecified",2012-08-20,"0","0","0","0","0","1","0","1","BULOVA AVENUE","BOROUGH PLACE","8:31","273143","BUS","QUEENS","40.7623853","Point","-73.9034334","11377",NA,NA,NA,NA,NA,NA,NA,NA,NA
"Aggressive Driving/Road Rage",2012-08-11,"0","0","0","1","0","0","0","1",NA,NA,"22:30","2853447","MOTORCYCLE",NA,"40.7914069","Point","-73.9356781",NA,"Unspecified","PASSENGER VEHICLE",NA,NA,NA,NA,NA,NA,NA
"Unspecified",2012-08-09,"0","0","0","0","0","1","0","1","STANTON STREET","ALLEN STREET","22:30","12320","OTHER","MANHATTAN","40.7216438","Point","-73.9891302","10002",NA,NA,NA,NA,NA,NA,NA,NA,NA
"Physical Disability",2012-08-06,"0","0","0","0","0","1","0","1","3 AVENUE","51 STREET","19:05","156067","PASSENGER VEHICLE","BROOKLYN","40.6471227","Point","-74.0151603","11220",NA,NA,NA,NA,NA,NA,NA,NA,NA
"Unspecified",2012-08-04,"0","0","0","0","0","1","0","1","VICTORY BOULEVARD","BAY STREET","12:28","285012","BUS",NA,NA,NA,NA,NA,NA,NA,NA,NA,NA,NA,NA,NA,NA
"Unspecified",2014-07-14,"0","0","0","0","0","1","0","1",NA,NA,"21:09","742325","PASSENGER VEHICLE",NA,NA,NA,NA,NA,NA,NA,NA,NA,NA,NA,NA,NA,"N/B FLATBUSH AVE & PLAZA STREET WEST"
"Unspecified",2012-08-02,"0","0","0","0","0","1","0","1","HUMBOLDT STREET","METROPOLITAN AVENUE","0:08","194049","LIVERY VEHICLE","BROOKLYN","40.7146912","Point","-73.9426881","11211",NA,NA,NA,NA,NA,NA,NA,NA,NA
"Unspecified",2012-07-28,"0","0","0","1","0","0","0","1","CAROLINA PLACE","COLLEGE AVENUE","0:45","284928","PASSENGER VEHICLE","STATEN ISLAND","40.6214289","Point","-74.1264267","10314",NA,NA,NA,NA,NA,NA,NA,NA,NA
"Driver Inattention/Distraction",2014-01-31,"0","0","2","1","0","0","2","1",NA,NA,"23:25","2849381","PASSENGER VEHICLE",NA,"40.7688772","Point","-73.9489716",NA,"Unspecified","SPORT UTILITY / STATION WAGON",NA,NA,NA,NA,NA,NA,NA
"Unspecified",2012-07-18,"0","1","0","0","0","0","0","1","39 PLACE","GREENPOINT AVENUE","22:51","238815","UNKNOWN","QUEENS","40.7390635","Point","-73.9261579","11104","Unspecified","BICYCLE","Unspecified","TAXI",NA,NA,NA,NA,NA
"Alcohol Involvement",2014-01-26,"0","0","0","0","0","1","0","1","GUILFORD STREET","LILY POND AVENUE","18:30","300827","SPORT UTILITY / STATION WAGON","STATEN ISLAND","40.5968498","Point","-74.062054","10305","Other Vehicular","SPORT UTILITY / STATION WAGON",NA,NA,NA,NA,NA,NA,NA
"Unspecified",2012-07-14,"0","0","0","0","0","1","0","1","WEST 99 STREET","BROADWAY","21:20","57611","TAXI","MANHATTAN","40.7965967","Point","-73.9703697","10025",NA,NA,NA,NA,NA,NA,NA,NA,NA
"Other Vehicular",2012-07-13,"0","1","0","0","0","0","0","1","EAST GUN HILL ROAD","WEBSTER AVENUE","23:18","109565","PASSENGER VEHICLE","BRONX","40.8786453","Point","-73.871598","10467","Unspecified","SPORT UTILITY / STATION WAGON","Unspecified","BICYCLE",NA,NA,NA,NA,NA
"Unspecified",2012-07-12,"0","0","1","1","0","0","1","1","EAST TREMONT AVENUE","OVERING STREET","0:57","88620","PASSENGER VEHICLE","BRONX","40.8430075","Point","-73.8485467","10461",NA,NA,NA,NA,NA,NA,NA,NA,NA
"Alcohol Involvement",2012-07-10,"0","0","1","0","0","1","1","1",NA,NA,"10:59","3089477","PASSENGER VEHICLE",NA,"40.725176","Point","-73.8373787",NA,"Unspecified","LARGE COM VEH(6 OR MORE TIRES)",NA,NA,NA,NA,NA,NA,NA
"View Obstructed/Limited",2012-07-02,"0","0","0","1","0","0","0","1","MONROE STREET","MARCY AVENUE","16:30","179420","FIRE TRUCK","BROOKLYN","40.685846","Point","-73.9473101","11216","Unspecified","OTHER",NA,NA,NA,NA,NA,NA,NA
"Unspecified",2015-04-16,"0","1","0","0","0","0","0","1","ROCKAWAY BOULEVARD","131 STREET","12:58","3203724","UNKNOWN","QUEENS","40.6748962","Point","-73.8074409","11420","Unspecified","BICYCLE",NA,NA,NA,NA,NA,NA,NA
"Following Too Closely",2015-04-02,"0","0","2","1","0","0","2","1","WEST 129 STREET","SAINT NICHOLAS AVENUE","12:45","3196270","SPORT UTILITY / STATION WAGON","MANHATTAN","40.8131597","Point","-73.9503486","10027","Driver Inattention/Distraction","PASSENGER VEHICLE",NA,NA,NA,NA,NA,NA,NA
"Unspecified",2015-03-25,"0","0","0","0","0","1","0","1","VANDALIA AVENUE","LOUISIANA AVENUE","15:30","3192053","PASSENGER VEHICLE","BROOKLYN","40.6491933","Point","-73.8876761","11239",NA,NA,NA,NA,NA,NA,NA,NA,NA
"Following Too Closely",2015-03-24,"0","0","0","1","0","0","0","1",NA,NA,"10:47","3191756","PASSENGER VEHICLE",NA,"40.5386637","Point","-74.1880025",NA,NA,NA,NA,NA,NA,NA,NA,NA,NA
"Following Too Closely",2015-03-20,"0","0","0","0","1","2","1","2","EAST 170 STREET","GRAND CONCOURSE","18:34","3189701","TAXI","BRONX","40.8387216","Point","-73.9137706","10456","Unspecified","SPORT UTILITY / STATION WAGON",NA,NA,NA,NA,NA,NA,NA
"Driver Inattention/Distraction",2015-03-20,"0","0","3","2","0","0","3","2",NA,NA,"4:50","3189584","PASSENGER VEHICLE",NA,"40.53078","Point","-74.22443",NA,"Driver Inattention/Distraction","LARGE COM VEH(6 OR MORE TIRES)",NA,NA,NA,NA,NA,NA,NA
"Driver Inattention/Distraction",2015-03-18,"0","0","0","1","0","0","0","1",NA,NA,"21:49","3188733",NA,NA,NA,NA,NA,NA,NA,NA,NA,NA,NA,NA,NA,NA,"MARINE PARK NATURE CENTER(MARSH AREA)"
"Unspecified",2015-03-16,"0","0","0","0","0","1","0","1","21 AVENUE","CROPSEY AVENUE","8:13","3187038","PASSENGER VEHICLE","BROOKLYN","40.598766","Point","-74.0007202","11214",NA,NA,NA,NA,NA,NA,NA,NA,NA
"Traffic Control Disregarded",2015-03-09,"0","0","4","0","0","1","4","1","NOSTRAND AVENUE","ST JOHNS PLACE","0:06","3183233","PASSENGER VEHICLE","BROOKLYN","40.6716376","Point","-73.950335","11216","Unspecified","SPORT UTILITY / STATION WAGON",NA,NA,NA,NA,NA,NA,NA
"Failure to Yield Right-of-Way",2015-03-07,"0","0","0","0","0","1","0","1","1 AVENUE","EAST 54 STREET","9:09","3181705","LARGE COM VEH(6 OR MORE TIRES)","MANHATTAN","40.7563818","Point","-73.9643237","10022",NA,NA,NA,NA,NA,NA,NA,NA,NA
"Traffic Control Disregarded",2015-02-27,"0","0","0","1","0","0","0","1","SHORE ROAD","3 AVENUE","19:03","3177170","PASSENGER VEHICLE","BROOKLYN","40.6125584","Point","-74.0360929","11209",NA,NA,NA,NA,NA,NA,NA,NA,NA
"Passing or Lane Usage Improper",2015-02-27,"0","0","0","1","0","0","0","1","NEPTUNE AVENUE","CROPSEY AVENUE","21:20","3177122","PASSENGER VEHICLE","BROOKLYN","40.5789366","Point","-73.9852115","11224","Unspecified","UNKNOWN",NA,NA,NA,NA,NA,NA,NA
"Failure to Yield Right-of-Way",2015-02-20,"0","0","0","0","0","1","0","1","AVENUE M","CONEY ISLAND AVENUE","14:00","3172578","BUS","BROOKLYN","40.6175896","Point","-73.9638107","11230",NA,NA,NA,NA,NA,NA,NA,NA,NA
"Passenger Distraction",2015-02-18,"0","0","0","0","0","1","0","1","MOTT STREET","CANAL STREET","11:08","3171214","VAN","MANHATTAN","40.7168135","Point","-73.9977634","10013",NA,NA,NA,NA,NA,NA,NA,NA,NA
"Unspecified",2015-02-11,"0","0","1","1","0","0","1","1","WEST 30 STREET","JOE DIMAGGIO HIGHWAY","18:44","3167432","PASSENGER VEHICLE","MANHATTAN","40.7544905","Point","-74.0067388","10001","Unspecified","PASSENGER VEHICLE",NA,NA,NA,NA,NA,NA,NA
"Unspecified",2015-02-09,"0","0","0","0","0","1","0","1","ASHFORD STREET","LINDEN BOULEVARD","22:12","3167143","LARGE COM VEH(6 OR MORE TIRES)","BROOKLYN","40.6627814","Point","-73.8808552","11207",NA,NA,NA,NA,NA,NA,NA,NA,NA
"Unspecified",2015-02-09,"0","0","0","0","0","1","0","1","ASHFORD STREET","LINDEN BOULEVARD","22:12","3167145","OTHER","BROOKLYN","40.6627814","Point","-73.8808552","11207",NA,NA,NA,NA,NA,NA,NA,NA,NA
"Driver Inattention/Distraction",2015-02-04,"0","0","0","0","0","1","0","1","CRANSTON STREET","NORTH CONDUIT AVENUE","23:50","3164710","SPORT UTILITY / STATION WAGON","QUEENS","40.6673698","Point","-73.7826551","11434","Unspecified","OTHER","Unspecified","SPORT UTILITY / STATION WAGON",NA,NA,NA,NA,NA
"Traffic Control Disregarded",2015-01-31,"0","0","0","1","0","0","0","1","BEACH 25 STREET","ROCKAWAY FREEWAY","19:59","3161601","PASSENGER VEHICLE","QUEENS","40.5999021","Point","-73.7615889","11691",NA,NA,NA,NA,NA,NA,NA,NA,NA
"Driver Inattention/Distraction",2015-01-29,"0","0","0","0","0","1","0","1","HILLSIDE AVENUE","165 STREET","21:22","3161104","BUS",NA,NA,NA,NA,NA,NA,NA,NA,NA,NA,NA,NA,NA,NA
"Failure to Yield Right-of-Way",2015-01-23,"0","0","0","0","0","1","0","1","EAST 84 STREET","MADISON AVENUE","10:20","3157772","PASSENGER VEHICLE","MANHATTAN","40.7795404","Point","-73.9597725","10028",NA,NA,NA,NA,NA,NA,NA,NA,NA
"Unspecified",2015-01-19,"0","0","0","0","0","1","0","1","ESTATES LANE","CROSS ISLAND PARKWAY SR SOUTH","17:34","3155847","SPORT UTILITY / STATION WAGON","QUEENS","40.7888914","Point","-73.7870217","11360",NA,NA,NA,NA,NA,NA,NA,NA,NA
